source_group,price,area_total,rooms,floor,floors_total,address,latitude,longitude,metro,metro_walk_min,kitchen_area,renovation,walls,build_year,ceiling_height,floor_position,elevator,house_number,yard,parking,playground,link,address_source,metro_distance_km,metro_source,distance_to_center_km,distance_to_mkad_km,distance_to_school_km,distance_to_kindergarten_km,distance_to_clinic_km,distance_to_mall_km
all,15450000.0,35.7,1.0,5.0,25.0,"Москва, ул. Люблинская",55.658007,37.726277,Перерва,8.0,17.0,евроремонт,панельные,,2.62,не угловая,,13.3,Двор,парковка во дворе,нет,https://msk.etagi.com/realty/11754972/,raw,0.7,geo_recomputed,12.56,5.66,0.22,0.42,0.91,0.18
all,10490000.0,24.0,0.0,11.0,32.0,"Москва, ул. Кавказский бульвар, 51 (14 км до центра)",55.627829,37.644073,Кантемировская,14.0,7.0,без отделки,монолитно-кирпичный,,,не угловая,,51,Парковка,"наземный паркинг, подземный паркинг",нет,https://msk.etagi.com/realty/12122401/,raw,1.2,geo_recomputed,13.94,6.03,0.58,0.4,0.39,0.18
all,12600000.0,34.5,1.0,8.0,9.0,"Москва, ул. 800-летия Москвы, 11к8",55.883318,37.562371,Бескудниково,4.0,7.0,чистовая отделка,панельные,1973.0,2.64,не угловая,пассажирский,11к8,Двор,"наземный паркинг, гостевой паркинг",есть,https://msk.etagi.com/realty/12239253/,raw,0.34,geo_recomputed,14.95,2.89,0.17,0.14,0.67,0.07
all,17500000.0,41.9,2.0,5.0,5.0,"Москва, ул. Константинова, 32к1",55.81958,37.659605,ВДНХ,14.0,5.6,косметический ремонт,кирпичные,1962.0,2.64,не угловая,,32к1,Двор,,нет,https://msk.etagi.com/realty/12403904/,raw,1.18,geo_recomputed,7.98,7.95,0.1,0.32,0.52,0.22
all,10700000.0,35.3,1.0,4.0,14.0,"Пятёрочка, улица Усадебный Парк, Жилой комплекс ""Середневский лес"", Филимонковский район, Москва, Центральный федеральный округ, 108821, Россия",55.570594,37.283139,Аэропорт Внуково,48.0,10.0,косметический ремонт,монолитно-кирпичный,,,не угловая,,7,Двор,наземный паркинг,нет,https://msk.etagi.com/realty/12445843/,geo,4.02,geo_recomputed,29.03,13.46,0.38,0.16,3.46,3.02
all,19500000.0,41.5,2.0,3.0,5.0,"Москва, ул. Путевой проезд, 40к2",55.878738,37.572935,Бескудниково,7.0,6.0,косметический ремонт,крупноблочные,,,не угловая,,40к2,Детская площадка,,нет,https://msk.etagi.com/realty/12446537/,raw,0.55,geo_recomputed,14.32,3.51,0.45,0.12,0.48,0.13
all,18000000.0,30.0,1.0,2.0,14.0,"Москва, ул. 4-й Верхний Михайловский проезд, 1 (5 км до центра)",55.707852,37.606559,Тульская,12.0,4.0,,монолитно-кирпичный,2022.0,3.0,не угловая,"пассажирский, пассажирский и грузовой",1,Двор,подземный паркинг,нет,https://msk.etagi.com/realty/12473864/,raw,1.02,geo_recomputed,4.96,11.93,0.47,0.25,0.27,0.13
all,30500000.0,72.0,3.0,1.0,17.0,"Москва, ул. Раменки, 11к1 (16 км до центра)",55.691785,37.498249,Раменки,8.0,9.0,евроремонт,панельные,1985.0,2.64,не угловая,"пассажирский, грузовой",11к1,Двор,наземный паркинг,есть,https://msk.etagi.com/realty/12474817/,raw,0.64,geo_recomputed,9.96,5.09,0.18,0.07,0.26,0.18
all,19500000.0,63.6,3.0,11.0,24.0,"Москва, ул. Новоостаповская, 20 (6 км до центра)",55.723759,37.686025,Волгоградский проспект,2.0,3.5,черновая отделка,монолитные,,,не угловая,грузовой,20,Двор,подземный паркинг,нет,https://msk.etagi.com/realty/12540256/,raw,0.21,geo_recomputed,5.43,9.46,0.78,0.53,0.7,0.15
all,27985000.0,45.0,1.0,19.0,29.0,"Москва, ул. Волгоградский проспект, 32/5к4 (5 км до центра)",55.720023,37.688782,Угрешская,7.0,22.0,,монолитные,2023.0,3.0,не угловая,"пассажирский, грузовой",32/5к4,Двор,"подземный паркинг, гостевой паркинг",нет,https://msk.etagi.com/realty/12600564/,raw,0.59,geo_recomputed,5.81,9.19,1.07,0.09,0.41,0.37
all,60900000.0,120.0,4.0,3.0,18.0,"Москва, ул. Паршина, 10",55.790357,37.458076,Щукинская,26.0,37.1,черновая отделка,монолитные,2020.0,3.0,угловая,"пассажирский и грузовой, пассажирский",10,Двор,"подземный паркинг, наземный паркинг",нет,https://msk.etagi.com/realty/12613901/,raw,2.14,geo_recomputed,10.73,4.75,0.32,0.41,0.51,0.76
all,14600000.0,46.0,2.0,2.0,14.0,"Москва, ул. Сумская, 8к3",55.624911,37.600855,Южная,7.0,6.5,косметический ремонт,сборно-монолитный железобетонный каркас,,,не угловая,"пассажирский, грузовой",8к3,Двор,,нет,https://msk.etagi.com/realty/12625585/,raw,0.58,geo_recomputed,14.18,5.17,0.48,0.09,0.54,0.2
all,12700000.0,38.5,1.0,8.0,14.0,"Москва, ул. Руднёвка, 25 (29 км до центра)",55.717574,37.888621,Улица Дмитриевского,13.0,7.3,косметический ремонт,панельные,2005.0,2.7,не угловая,"пассажирский, грузовой",25,Двор,наземный паркинг,есть,https://msk.etagi.com/realty/12625744/,raw,1.09,geo_recomputed,17.52,3.11,0.29,0.07,0.47,0.12
all,145000000.0,160.6,5.0,12.0,16.0,"Москва, ул. Мичуринский проспект, 5",55.702906,37.511508,Ломоносовский проспект,9.0,16.0,,панельные,1979.0,2.64,не угловая,"пассажирский, грузовой",5,Двор,"наземный паркинг, гостевой паркинг, подземный паркинг",есть,https://msk.etagi.com/realty/12627020/,raw,0.75,geo_recomputed,8.52,6.3,0.08,0.1,0.15,0.43
all,26500000.0,60.0,2.0,11.0,22.0,"Москва, ул. Кировоградская, 2 (11 км до центра)",55.632814,37.612506,Чертановская,11.0,10.5,,панельные,1991.0,2.65,не угловая,"пассажирский, грузовой",2,Двор,наземный паркинг,есть,https://msk.etagi.com/realty/12627062/,raw,0.95,geo_recomputed,13.28,6.27,0.23,0.4,0.72,0.21
all,10350000.0,28.3,1.0,1.0,8.0,"Москва, ул. 3-я Парковая, 35 (11 км до центра)",55.796643,37.781659,Измайловская,12.0,6.0,требует ремонта / частичный ремонт,блочные,,2.6,не угловая,пассажирский,35,Двор,"наземный паркинг, гостевой паркинг",нет,https://msk.etagi.com/realty/12627448/,raw,1.0,geo_recomputed,11.5,3.68,0.26,0.14,0.27,0.23
all,16250000.0,34.9,1.0,11.0,12.0,"Москва, ул. Тимирязевская, 7",55.80866,37.569773,Дмитровская,9.0,8.0,косметический ремонт,кирпичные,1969.0,2.64,не угловая,,7,Двор,"наземный паркинг, гостевой паркинг",нет,https://msk.etagi.com/realty/12627462/,raw,0.75,geo_recomputed,6.9,10.25,0.49,0.23,0.02,0.24
all,15700000.0,46.0,2.0,2.0,12.0,"Москва, ул. Ясеневая, 35 (18 км до центра)",55.606527,37.740165,Зябликово,8.0,7.0,косметический ремонт,панельные,1977.0,2.64,не угловая,"пассажирский, грузовой",35,Двор,наземный паркинг,есть,https://msk.etagi.com/realty/12627935/,raw,0.68,geo_recomputed,17.98,0.9,0.08,0.14,0.47,0.11
all,13450000.0,37.6,2.0,2.0,9.0,"Москва, ул. Измайловский проспект, 115а (20 км до центра)",55.789254,37.812758,Первомайская,12.0,6.0,требует ремонта / частичный ремонт,блочные,1972.0,2.5,угловая,"пассажирский, грузовой",115а,Двор,наземный паркинг,есть,https://msk.etagi.com/realty/12628204/,raw,1.01,geo_recomputed,13.0,1.78,0.05,0.41,0.29,0.44
all,24990000.0,38.6,2.0,4.0,26.0,"Москва, ул. Кронштадтский бульвар, 9к1",55.841625,37.489706,Водный стадион,4.0,18.0,,монолитно-каркасные,,2.8,не угловая,"пассажирский, грузовой",9к1,Двор,,нет,https://msk.etagi.com/realty/12629617/,raw,0.32,geo_recomputed,12.68,4.84,0.47,0.29,0.36,0.16
all,17100000.0,35.0,1.0,2.0,12.0,"Москва, ул. Знаменская, 38к2 (8 км до центра)",55.801981,37.722496,Преображенская площадь,10.0,9.0,,блочные,1972.0,2.48,не угловая,"пассажирский, грузовой",38к2,Двор,,нет,https://msk.etagi.com/realty/12630961/,raw,0.84,geo_recomputed,8.68,6.74,0.09,0.2,0.09,0.26
all,14800000.0,37.0,1.0,5.0,13.0,"Москва, ул. Ленинградское шоссе, 229ак2 (26 км до центра)",,,Новоподрезково,15.0,7.0,евроремонт,монолитные,,,не угловая,,229ак2,Двор,"наземный паркинг, подземный паркинг",нет,https://msk.etagi.com/realty/12619927/,raw,,raw,,,,,,
all,26200000.0,52.0,2.0,7.0,22.0,"Москва, ул. Малая Филёвская, 22 (19 км до центра)",55.736615,37.466009,Пионерская,1.0,9.0,евроремонт,монолитные,2018.0,2.64,не угловая,"пассажирский, грузовой, пассажирский и грузовой",22,Двор,наземный паркинг,есть,https://msk.etagi.com/realty/12619982/,raw,0.08,geo_recomputed,9.52,5.53,0.23,0.13,0.35,0.09
all,15200000.0,33.0,1.0,8.0,9.0,"Москва, ул. Академика Комарова, 20а",55.830832,37.586571,Фонвизинская,11.0,5.0,,панели железобетонные,,2.5,не угловая,,20а,Детская площадка,,нет,https://msk.etagi.com/realty/12619998/,raw,0.9,geo_recomputed,8.93,8.09,0.31,0.23,0.39,0.32
all,12400000.0,22.0,0.0,18.0,20.0,"Москва, ул. Производственная, 19ак2 (20 км до центра)",55.644318,37.380687,Новопеределкино,7.0,5.0,черновая отделка,блочные+кирпич,999.0,,не угловая,грузовой,19ак2,Детская площадка,,нет,https://msk.etagi.com/realty/12620167/,raw,0.57,geo_recomputed,18.99,3.81,0.48,0.35,0.76,0.82
all,11350000.0,18.76,0.0,10.0,23.0,"1-й Нагатинский проезд, район Нагатино-Садовники, Москва, Центральный федеральный округ, 115230, Россия",55.674743,37.628254,Нагатинская,11.0,2.6,чистовая отделка,монолитно-кирпичный,,2.7,не угловая,"грузовой, пассажирский, пассажирский и грузовой",2,Детская площадка,,есть,https://msk.etagi.com/realty/12620318/,geo,0.94,geo_recomputed,8.65,10.95,0.3,0.29,0.43,0.07
all,10000000.0,28.1,1.0,3.0,24.0,"Москва, ул. Очаковское шоссе, 7 (12 км до центра)",55.692896,37.460816,Аминьевская,6.0,10.0,чистовая отделка,панельные,,,не угловая,,7,Двор,"подземный паркинг, наземный паркинг",нет,https://msk.etagi.com/realty/12620373/,raw,0.52,geo_recomputed,11.72,2.94,0.37,0.15,0.42,0.3
all,17950000.0,27.0,1.0,5.0,15.0,"Москва, ул. проспект Маршала Жукова, 39ак1 (9 км до центра)",55.775307,37.471237,Народное Ополчение,10.0,10.0,,сборно-монолитный железобетонный каркас,,2.64,не угловая,"пассажирский, грузовой",39ак1,Двор,"наземный паркинг, гостевой паркинг",есть,https://msk.etagi.com/realty/12620459/,raw,0.87,geo_recomputed,9.39,6.18,0.42,0.25,0.15,0.09
all,66000000.0,91.4,3.0,12.0,24.0,"Москва, ул. Профсоюзная, 68к2 (11 км до центра)",55.664091,37.546264,Воронцовская,9.0,21.7,,монолитные,,,не угловая,,68к2,Детская площадка,,нет,https://msk.etagi.com/realty/12620473/,raw,0.73,geo_recomputed,10.72,6.08,0.66,0.54,0.08,0.21
all,13900000.0,30.1,1.0,1.0,8.0,"Москва, ул. Звёздный бульвар, 42к1",55.813273,37.622729,Алексеевская,14.0,7.0,евроремонт,блочные,1961.0,2.64,не угловая,грузовой,42к1,Двор,наземный паркинг,нет,https://msk.etagi.com/realty/12620582/,raw,1.17,geo_recomputed,6.81,9.42,0.42,0.33,0.34,0.06
all,15000000.0,37.5,1.0,5.0,17.0,"Москва, ул. Главмосстроя, 9 (97 км до центра)",55.655706,37.40601,Говорово,10.0,7.4,чистовая отделка,кирпично-панельные,,2.6,не угловая,,9,Детская площадка,,нет,https://msk.etagi.com/realty/12620874/,raw,0.79,geo_recomputed,16.96,1.8,0.13,0.11,0.13,0.35
all,,,,,,,,,,,,,,,,,,,,,,https://msk.etagi.com/realty/12620890/,missing,,missing,,,,,,
all,27200000.0,66.1,2.0,4.0,24.0,"Москва, ул. Перовское шоссе, д. 21",55.736939,37.74816,Андроновка,11.0,29.9,черновая отделка,монолитно-кирпичный,,2.98,не угловая,,1,Детская площадка,,нет,https://msk.etagi.com/realty/12613381/,raw,0.94,geo_recomputed,8.47,5.82,0.26,0.19,0.25,0.4
all,18950000.0,52.8,3.0,17.0,25.0,"Москва, ул. Новоостаповская, 2 (5 км до центра)",55.717264,37.666531,Дубровка,7.0,10.0,косметический ремонт,монолитные,,,не угловая,грузовой,2,Двор,подземный паркинг,нет,https://msk.etagi.com/realty/12613740/,raw,0.62,geo_recomputed,5.03,10.48,0.19,0.39,0.28,0.24
all,25000000.0,72.2,3.0,2.0,17.0,"Москва, ул. Борисовские Пруды, 21к2",55.636936,37.723403,Борисово,16.0,10.0,евроремонт,панели железобетонные,,,не угловая,,21к2,Детская площадка,,нет,https://msk.etagi.com/realty/12614582/,raw,1.34,geo_recomputed,14.49,4.1,0.13,0.09,1.11,0.54
all,36000000.0,54.0,2.0,10.0,27.0,"Москва, ул. Зорге, 9к2 (7 км до центра)",55.782309,37.508598,Хорошево,7.0,9.0,косметический ремонт,монолитно-кирпичный,2022.0,3.0,не угловая,грузовой,9к2,Двор,"наземный паркинг, гостевой паркинг, подземный паркинг",есть,https://msk.etagi.com/realty/12614623/,raw,0.57,geo_recomputed,7.48,8.04,0.28,0.29,0.47,0.48
all,12890000.0,50.1,3.0,8.0,12.0,"Москва, ул. Харьковский проезд, 11к2 (19 км до центра)",55.588806,37.639464,Красный строитель,18.0,6.0,косметический ремонт,блочные+кирпич,,2.64,не угловая,,11к2,Двор,наземный паркинг,нет,https://msk.etagi.com/realty/12614792/,raw,1.53,geo_recomputed,18.23,1.68,0.23,0.25,0.77,0.37
all,14000000.0,46.0,2.0,1.0,9.0,"Москва, ул. Сахалинская, 4",55.825057,37.817232,Щелковская,25.0,6.0,,панельные,1969.0,2.64,не угловая,"пассажирский, грузовой",4,Двор,"наземный паркинг, гостевой паркинг",есть,https://msk.etagi.com/realty/12615047/,raw,2.05,geo_recomputed,14.98,0.84,0.33,0.11,0.49,0.38
all,8600000.0,22.5,5.0,1.0,12.0,"Москва, ул. Маршала Катукова, 14к1",55.807936,37.405597,Строгино,6.0,5.0,,панельные,,,не угловая,"пассажирский, грузовой",14к1,Двор,наземный паркинг,нет,https://msk.etagi.com/realty/12615212/,raw,0.5,geo_recomputed,14.52,1.07,0.19,0.08,0.42,0.15
all,22000000.0,65.0,0.0,3.0,5.0,"Москва, ул. Госпитальный Вал, 5к16",55.774006,37.706092,Электрозаводская,10.0,7.0,косметический ремонт,монолитные,,2.64,не угловая,,5к16,Двор,наземный паркинг,нет,https://msk.etagi.com/realty/12615318/,raw,0.79,geo_recomputed,6.16,8.56,0.07,0.2,0.18,0.64
all,19400000.0,42.5,2.0,3.0,8.0,"Москва, ул. Трофимова, 4б",55.701308,37.662228,Автозаводская,7.0,9.0,косметический ремонт,кирпичные,1962.0,2.64,не угловая,"пассажирский, грузовой",4б,Двор,,нет,https://msk.etagi.com/realty/12615473/,raw,0.56,geo_recomputed,6.37,10.52,0.56,0.07,0.26,0.28
all,30300000.0,100.1,4.0,,,"Москва, ул. Фонвизина, 14",55.820678,37.588548,Фонвизинская,3.0,9.0,косметический ремонт,,,,не угловая,,14,Детская площадка,,нет,https://msk.etagi.com/realty/12615474/,raw,0.24,geo_recomputed,7.8,9.13,0.26,0.06,0.46,0.11
all,20700000.0,38.0,1.0,10.0,24.0,"Москва, ул. Кольская, 8",55.860752,37.650451,Свиблово,7.0,9.0,чистовая отделка,монолитный пенобетон,,,не угловая,,8,Детская площадка,,нет,https://msk.etagi.com/realty/12615521/,raw,0.61,geo_recomputed,12.27,3.93,0.71,0.39,0.38,0.25
all,74900000.0,101.0,3.0,2.0,9.0,"Москва, ул. Самотёчная, 5 (2 км до центра)",55.775236,37.618327,Цветной бульвар,5.0,30.0,,кирпичные,2005.0,2.64,не угловая,"пассажирский, грузовой",5,Двор,наземный паркинг,нет,https://msk.etagi.com/realty/12603150/,raw,0.42,geo_recomputed,2.57,13.35,0.47,0.34,0.01,0.12
all,16300000.0,41.0,1.0,10.0,24.0,"Москва, ул. 6-я Радиальная, 7/1к2 (17 км до центра)",55.603565,37.653084,Царицыно,23.0,14.0,,монолитные,2022.0,2.5,не угловая,,7/1к2,Двор,"подземный паркинг, наземный паркинг",нет,https://msk.etagi.com/realty/12606631/,raw,1.92,geo_recomputed,16.69,3.4,0.37,0.49,0.46,0.12
all,13200000.0,34.7,1.0,9.0,9.0,"Москва, ул. Ясеневая, 10к2",55.598782,37.720295,Домодедовская,15.0,9.0,косметический ремонт,панельные,1976.0,2.5,не угловая,"пассажирский, грузовой",10к2,Двор,,нет,https://msk.etagi.com/realty/12606666/,raw,1.28,geo_recomputed,18.28,0.96,0.08,0.2,0.68,0.17
all,25800000.0,64.7,2.0,15.0,23.0,"Москва, ул. Мячковский бульвар, 1",55.659119,37.751664,Братиславская,2.0,10.4,косметический ремонт,крупнопанельные железобетонные плиты,,3.0,не угловая,,1,Двор,парковка во дворе,нет,https://msk.etagi.com/realty/12606726/,raw,0.21,geo_recomputed,13.41,4.58,0.39,0.23,0.33,0.13
all,12500000.0,36.5,1.0,20.0,24.0,"Москва, ул. Верхние Поля, 45к1",55.667731,37.774014,Люблино,15.0,8.1,требует ремонта / частичный ремонт,панельные,2004.0,3.0,не угловая,"пассажирский, грузовой",45к1,Двор,наземный паркинг,нет,https://msk.etagi.com/realty/12606911/,raw,1.25,geo_recomputed,13.66,3.92,0.24,0.21,0.38,0.14
all,14500000.0,37.5,1.0,2.0,17.0,"Москва, ул. Борисовские Пруды, 21к2",55.636936,37.723403,Борисово,16.0,9.0,евроремонт,панели железобетонные,,,не угловая,,21к2,Детская площадка,,нет,https://msk.etagi.com/realty/12607300/,raw,1.34,geo_recomputed,14.49,4.1,0.13,0.09,1.11,0.54
all,14700000.0,31.5,1.0,15.0,25.0,"Москва, ул. Люблинская, 72ак2 (12 км до центра)",55.666919,37.733994,Депо,11.0,10.1,косметический ремонт,панельные,2024.0,2.65,не угловая,,72ак2,Двор,"подземный паркинг, наземный паркинг",нет,https://msk.etagi.com/realty/12607535/,raw,0.89,geo_recomputed,12.04,5.99,0.79,0.28,1.16,0.52
all,41000000.0,60.0,2.0,15.0,20.0,"Москва, ул. Автозаводская, 26/1к4 (6 км до центра)",55.705853,37.631874,Тульская,9.0,9.0,косметический ремонт,монолитные,,,не угловая,,26/1к4,Двор,"подземный паркинг, наземный паркинг",нет,https://msk.etagi.com/realty/12607564/,raw,0.72,geo_recomputed,5.25,12.46,0.66,0.57,0.46,0.09
all,35500000.0,86.0,3.0,18.0,23.0,"Москва, ул. 1-й Грайвороновский проезд, 1/1",55.719003,37.72705,Новохохловская,6.0,6.0,,монолитные,2020.0,2.64,не угловая,"пассажирский, грузовой",1/1,Двор,"наземный паркинг, гостевой паркинг",есть,https://msk.etagi.com/realty/12607679/,raw,0.49,geo_recomputed,7.89,6.84,0.56,0.2,0.06,0.19
all,15800000.0,38.3,1.0,3.0,25.0,"Москва, ул. Дмитровское шоссе, 86 (14 км до центра)",55.869364,37.549857,Селигерская,6.0,10.0,косметический ремонт,монолитные,2013.0,2.64,не угловая,"пассажирский, грузовой",86,Двор,наземный паркинг,есть,https://msk.etagi.com/realty/12607922/,raw,0.5,geo_recomputed,13.66,4.04,0.21,0.1,0.14,0.13
all,16900000.0,30.1,1.0,,,"Москва, ул. Менжинского, 15к2",55.867339,37.671651,Бабушкинская,7.0,6.0,,,,,не угловая,,15к2,Детская площадка,,нет,https://msk.etagi.com/realty/12608075/,raw,0.59,geo_recomputed,13.27,3.09,0.12,0.21,0.12,0.35
all,16500000.0,39.8,1.0,24.0,33.0,"Москва, ул. Кавказский бульвар, 51к2 (14 км до центра)",55.62819,37.639581,Кантемировская,16.0,9.0,косметический ремонт,монолитные,,,не угловая,,51к2,Двор,"подземный паркинг, наземный паркинг",нет,https://msk.etagi.com/realty/12591333/,raw,1.37,geo_recomputed,13.87,6.04,0.85,0.68,0.67,0.47
all,23300000.0,58.0,2.0,10.0,21.0,"Москва, ул. проезд Шокальского, 28ак1 (14 км до центра)",55.878859,37.650352,Медведково,15.0,11.0,косметический ремонт,монолитные,,,не угловая,,28ак1,Детская площадка,,нет,https://msk.etagi.com/realty/12596706/,raw,1.24,geo_recomputed,14.25,1.94,0.1,0.18,0.53,0.33
all,13800000.0,64.5,3.0,7.0,16.0,"Москва, ул. 2-я Вольская, 26",55.686284,37.927779,Некрасовка,22.0,7.8,евроремонт,панельные,1989.0,2.64,не угловая,"пассажирский, грузовой",26,Двор,"наземный паркинг, гостевой паркинг",нет,https://msk.etagi.com/realty/12596937/,raw,1.85,geo_recomputed,20.88,5.94,0.33,0.41,0.75,0.17
all,13500000.0,50.4,2.0,6.0,15.0,"6 к2, Говорово, Хутор Говорово, район Солнцево, Москва, Центральный федеральный округ, 119606, Россия",55.648727,37.439104,Румянцево,21.0,6.8,требует ремонта / частичный ремонт,монолитно-кирпичный,2025.0,2.82,не угловая,"пассажирский и грузовой, пассажирский",к2,Двор,"наземный паркинг, подземный паркинг, гостевой паркинг",нет,https://msk.etagi.com/realty/12597151/,geo,1.76,geo_recomputed,15.96,0.46,0.92,1.2,1.56,0.93
all,10999000.0,25.0,0.0,2.0,13.0,"Москва, ул. Шереметьевская, 21 (5 км до центра)",55.799851,37.615255,Марьина Роща,3.0,5.0,черновая отделка,монолитные,,3.0,не угловая,"грузовой, пассажирский, пассажирский и грузовой",21,Двор,"подземный паркинг, наземный паркинг",нет,https://msk.etagi.com/realty/12598420/,raw,0.21,geo_recomputed,5.3,10.98,0.45,0.15,0.21,0.07
all,22000000.0,38.0,2.0,2.0,9.0,"Москва, ул. Госпитальный Вал, 10/12",55.772239,37.708976,Лефортово,11.0,8.0,,панельные,,,не угловая,"пассажирский, грузовой",10/12,Двор,,нет,https://msk.etagi.com/realty/12599595/,raw,0.95,geo_recomputed,6.25,8.39,0.14,0.09,0.09,0.72
all,15900000.0,34.0,1.0,8.0,8.0,"Москва, ул. Рязанский проспект, 51",55.724662,37.766262,Окская,7.0,5.7,косметический ремонт,кирпичные,1961.0,2.64,не угловая,"пассажирский, грузовой",51,Двор,"наземный паркинг, гостевой паркинг",есть,https://msk.etagi.com/realty/12600300/,raw,0.57,geo_recomputed,9.92,4.59,0.15,0.23,0.66,0.23
all,27985000.0,45.0,1.0,12.0,29.0,"Москва, ул. Волгоградский проспект, 32/5к4 (5 км до центра)",55.720023,37.688782,Угрешская,7.0,9.0,косметический ремонт,монолитные,2023.0,3.0,не угловая,"пассажирский, грузовой",32/5к4,Двор,"подземный паркинг, гостевой паркинг",нет,https://msk.etagi.com/realty/12600792/,raw,0.59,geo_recomputed,5.81,9.19,1.07,0.09,0.41,0.37
all,17820000.0,27.0,0.0,17.0,26.0,"Москва, ул. Дмитровское шоссе, 73б",55.856124,37.555723,Верхние Лихоборы,5.0,5.0,,монолитные,,,не угловая,,73б,Двор,"наземный паркинг, полуподземный паркинг",нет,https://msk.etagi.com/realty/12600890/,raw,0.45,geo_recomputed,12.15,5.43,0.63,0.71,0.48,0.13
all,,,,,,,,,,,,,,,,,,,,,,https://msk.etagi.com/realty/12601029/,missing,,missing,,,,,,
all,18000000.0,45.6,2.0,5.0,12.0,"Москва, ул. Веерная, 40к3 (17 км до центра)",55.712812,37.485367,Матвеевское,11.0,6.7,косметический ремонт,панельные,,2.5,не угловая,пассажирский,40к3,Двор,наземный паркинг,нет,https://msk.etagi.com/realty/12601370/,raw,0.92,geo_recomputed,9.26,5.16,0.28,0.18,0.37,0.47
all,28700000.0,78.3,3.0,6.0,25.0,"Москва, ул. Братеевская, 21к3",55.632057,37.754116,Борисово,8.0,9.0,,монолитные,2000.0,2.7,не угловая,,21к3,Двор,"наземный паркинг, гостевой паркинг",есть,https://msk.etagi.com/realty/12583976/,raw,0.68,geo_recomputed,15.93,2.36,0.27,0.24,0.75,0.16
all,14500000.0,35.0,1.0,24.0,24.0,"Тимирязевский район, Москва, Центральный федеральный округ, 125635, Россия",55.848427,37.560368,Лихоборы,6.0,14.0,чистовая отделка,панельные,,,не угловая,,к3.6,Детская площадка,,нет,https://msk.etagi.com/realty/12592366/,geo,0.52,geo_recomputed,11.24,6.28,0.59,0.88,1.04,0.31
all,28000000.0,63.5,2.0,15.0,33.0,"Москва, ул. проспект Будённого, 51к1 (8 км до центра)",55.760454,37.737767,Шоссе Энтузиастов,8.0,12.5,,другое,,2.7,не угловая,пассажирский,51к1,Двор,"наземный паркинг, парковка во дворе, гостевой паркинг",нет,https://msk.etagi.com/realty/12593419/,raw,0.7,geo_recomputed,7.7,6.57,0.32,0.16,0.24,0.29
all,19700000.0,57.8,2.0,7.0,17.0,"Москва, ул. Ангелов переулок, 11",55.852192,37.345733,Пятницкое шоссе,6.0,10.1,евроремонт,панельные,,2.64,не угловая,"пассажирский, грузовой",11,Двор,"наземный паркинг, гостевой паркинг",есть,https://msk.etagi.com/realty/12593452/,raw,0.49,geo_recomputed,20.2,2.92,0.26,0.13,0.16,0.28
all,20000000.0,43.9,2.0,7.0,26.0,"Москва, ул. шоссе Энтузиастов, 86ак2",55.764014,37.798268,Новогиреево,20.0,4.0,евроремонт,монолитные,,2.64,не угловая,,86ак2,Двор,,нет,https://msk.etagi.com/realty/12593561/,raw,1.66,geo_recomputed,11.5,2.79,0.6,0.54,0.19,0.37
all,11000000.0,35.0,1.0,10.0,14.0,"Москва, ул. Головачёва, 5к1",55.67459,37.806129,Люблино,34.0,9.5,требует ремонта / частичный ремонт,блочные,1972.0,2.64,не угловая,"пассажирский, грузовой",5к1,Двор,"наземный паркинг, гостевой паркинг",есть,https://msk.etagi.com/realty/12593870/,raw,2.8,geo_recomputed,14.73,1.78,0.21,0.13,0.13,0.08
all,24440000.0,50.0,2.0,14.0,25.0,"Москва, ул. Академика Скрябина, 6 (18 км до центра)",55.71518,37.796104,Рязанский проспект,3.0,9.0,,панельные,,,не угловая,"пассажирский, грузовой",6,Двор,наземный паркинг,нет,https://msk.etagi.com/realty/12594039/,raw,0.24,geo_recomputed,12.03,2.56,0.21,0.15,0.31,0.12
all,18600000.0,50.1,2.0,6.0,25.0,"1 к3, Квартал №100, район Кунцево, Москва, Центральный федеральный округ, 121500, Россия",55.803757,37.351105,Павшино,17.0,12.0,косметический ремонт,кирпичные,,2.7,не угловая,,1к3,Двор,подземный паркинг,нет,https://msk.etagi.com/realty/12594222/,geo,1.41,geo_recomputed,17.51,1.93,0.41,0.31,1.88,2.09
all,10800000.0,25.0,0.0,2.0,10.0,"Москва, ул. Подъёмная, 14с37 (6 км до центра)",55.742448,37.707521,Калитники,12.0,5.0,косметический ремонт,монолитные,,3.0,не угловая,пассажирский,14с37,Двор,"гостевой паркинг, наземный паркинг, парковка во дворе",нет,https://msk.etagi.com/realty/12594248/,raw,1.0,geo_recomputed,5.85,8.4,0.39,0.53,0.21,0.56
all,25990000.0,69.2,3.0,2.0,5.0,"Москва, ул. Краснопрудная, 22а",55.77791,37.664788,Красносельская,3.0,8.0,без отделки,кирпичные,1930.0,2.64,не угловая,"пассажирский, грузовой",22а,Двор,наземный паркинг,нет,https://msk.etagi.com/realty/12594392/,raw,0.25,geo_recomputed,4.2,11.12,0.34,0.29,0.34,0.19
all,20600000.0,34.3,1.0,8.0,30.0,"Москва, ул. Николая Озерова, 8к1 (13 км до центра)",55.814937,37.430453,Спартак,6.0,17.7,черновая отделка,монолитные,2024.0,,не угловая,,8к1,Двор,"наземный паркинг, подземный паркинг",нет,https://msk.etagi.com/realty/12594413/,raw,0.47,geo_recomputed,13.52,2.46,0.26,0.55,0.19,0.62
all,16500000.0,40.1,1.0,9.0,23.0,"Москва, ул. Старокрымская, 15к1 (19 км до центра)",55.557948,37.557268,Бутово,13.0,14.2,евроремонт,монолитные,2017.0,2.7,не угловая,"пассажирский, грузовой",15к1,Двор,"наземный паркинг, подземный паркинг",есть,https://msk.etagi.com/realty/12587627/,raw,1.08,geo_recomputed,21.91,2.74,0.15,0.3,0.77,0.8
all,17300000.0,48.7,2.0,5.0,11.0,"Москва, ул. 6-я Радиальная, 3к9",55.604748,37.664024,Царицыно,18.0,10.0,,монолитные,2013.0,2.64,не угловая,"пассажирский, грузовой",3к9,Двор,"наземный паркинг, гостевой паркинг",нет,https://msk.etagi.com/realty/12587782/,raw,1.54,geo_recomputed,16.67,3.5,0.72,0.22,0.26,0.41
all,33000000.0,78.8,3.0,13.0,32.0,"Москва, ул. Руставели, 14/1с1 (7 км до центра)",55.811857,37.59515,Бутырская ,6.0,19.5,чистовая отделка,панельные,,2.76,не угловая,,14/1с1,Детская площадка,,нет,https://msk.etagi.com/realty/12587855/,raw,0.5,geo_recomputed,6.76,9.96,0.35,0.38,0.39,0.54
all,18000000.0,58.7,2.0,7.0,12.0,"Москва, ул. Академика Понтрягина, 25",55.532126,37.501618,Бунинская аллея,13.0,12.9,косметический ремонт,панельные,2006.0,2.64,не угловая,"пассажирский, грузовой",25,Двор,"наземный паркинг, гостевой паркинг",есть,https://msk.etagi.com/realty/12587870/,raw,1.11,geo_recomputed,25.5,6.75,0.15,0.07,1.06,0.23
all,23650000.0,75.1,3.0,14.0,14.0,"Москва, ул. Новомарьинская, 12/12к1 (13 км до центра)",55.652705,37.754413,Марьино,9.0,10.0,косметический ремонт,панельные,1995.0,2.64,не угловая,"пассажирский, грузовой",12/12к1,Двор,"наземный паркинг, гостевой паркинг",есть,https://msk.etagi.com/realty/12588911/,raw,0.77,geo_recomputed,14.07,3.98,0.22,0.02,0.11,0.27
all,22000000.0,38.0,1.0,14.0,29.0,"Москва, ул. Отрадная, 4а",55.857712,37.60614,Отрадное,9.0,10.0,без отделки,другое,,3.0,не угловая,,4а,Детская площадка,,нет,https://msk.etagi.com/realty/12589191/,raw,0.73,geo_recomputed,11.75,4.87,0.3,0.2,0.23,0.15
all,24000000.0,36.2,1.0,16.0,24.0,"Москва, ул. Новаторов, 6 (11 км до центра)",55.668396,37.523339,Новаторская,4.0,9.0,косметический ремонт,монолитно-кирпичный,,2.7,не угловая,"пассажирский, грузовой",6,Двор,наземный паркинг,нет,https://msk.etagi.com/realty/12589298/,raw,0.34,geo_recomputed,10.97,5.14,0.23,0.02,0.53,0.13
all,7500000.0,32.6,1.0,5.0,9.0,"Москва, ул. Главная, 19а (27 км до центра)",55.821087,37.868445,Щелковская,55.0,9.0,косметический ремонт,панельные,1974.0,2.64,не угловая,пассажирский,19а,Двор,наземный паркинг,есть,https://msk.etagi.com/realty/12590019/,raw,4.56,geo_recomputed,17.57,1.91,0.18,0.34,0.71,0.09
all,25000000.0,74.9,3.0,10.0,16.0,"Москва, ул. Скобелевская, 21 (20 км до центра)",55.546735,37.55734,Бутово,2.0,9.0,косметический ремонт,панельные,2002.0,2.7,не угловая,"пассажирский, грузовой",21,Двор,"наземный паркинг, гостевой паркинг",есть,https://msk.etagi.com/realty/12590036/,raw,0.2,geo_recomputed,23.14,3.88,0.19,0.16,0.29,0.17
all,25000000.0,59.0,2.0,7.0,24.0,"Москва, ул. Промышленный проезд, 4",55.742078,37.507412,Фили,6.0,11.0,евроремонт,арбоблок,,,не угловая,,4,Парковка,подземный паркинг,нет,https://msk.etagi.com/realty/12590165/,raw,0.51,geo_recomputed,6.86,8.12,0.48,0.27,0.42,0.21
all,15800000.0,38.0,2.0,5.0,5.0,"Москва, ул. Коминтерна, 46 (14 км до центра)",55.871572,37.691297,Бабушкинская,20.0,9.0,косметический ремонт,кирпичные,,,не угловая,"пассажирский, грузовой",46,Двор,,нет,https://msk.etagi.com/realty/12590294/,raw,1.68,geo_recomputed,14.09,2.33,0.15,0.08,0.82,0.66
all,18000000.0,40.0,1.0,4.0,22.0,"Москва, ул. 3-я Гражданская, 21",55.812423,37.707754,Бульвар Рокоссовского,19.0,9.0,косметический ремонт,монолитно-кирпичный,,6.0,не угловая,пассажирский,21,Двор,,есть,https://msk.etagi.com/realty/12581072/,raw,1.55,geo_recomputed,8.83,6.51,0.42,0.2,0.2,0.09
all,11780000.0,38.9,1.0,1.0,12.0,"Москва, ул. Проходчиков, 10к2 (15 км до центра)",55.875679,37.724338,Бабушкинская,45.0,8.6,косметический ремонт,панельные,1981.0,,не угловая,пассажирский,10к2,Двор,наземный паркинг,нет,https://msk.etagi.com/realty/12581428/,raw,3.78,geo_recomputed,15.32,0.61,0.15,0.24,0.2,0.15
all,17000000.0,28.6,1.0,21.0,22.0,"Москва, ул. Волоколамское шоссе, 71/22",55.821927,37.438619,Тушинская,5.0,8.0,,монолитные,,,не угловая,,71/22,Детская площадка,,нет,https://msk.etagi.com/realty/12581500/,raw,0.41,geo_recomputed,13.51,2.84,0.76,0.39,0.49,0.35
all,7500000.0,27.2,0.0,10.0,26.0,"74 к2, Люблинская улица, район Люблино, Москва, Центральный федеральный округ, 109387, Россия",55.665528,37.734192,Депо,12.0,9.0,черновая отделка,железо-бетон,,,не угловая,,72 к 11,Детская площадка,,нет,https://msk.etagi.com/realty/12582125/,geo,1.04,geo_recomputed,12.17,5.88,0.78,0.17,1.05,0.6
all,16500000.0,45.6,2.0,,,"Москва, ул. Бутлерова, 38к2",55.64317,37.54754,Беляево,16.0,5.8,косметический ремонт,панельные,,2.64,не угловая,,38к2,Двор,,нет,https://msk.etagi.com/realty/12582212/,raw,1.35,geo_recomputed,12.85,4.87,0.14,0.18,0.4,0.25
all,15499999.0,38.2,2.0,22.0,23.0,"ВБРР, МКАД, 26-й километр, район Бирюлёво Восточное, Москва, Центральный федеральный округ, 115598, Россия",55.584619,37.705005,Домодедовская,35.0,5.2,черновая отделка,монолитно-кирпичный,,,не угловая,,2,Детская площадка,,нет,https://msk.etagi.com/realty/12582348/,geo,2.94,geo_recomputed,19.46,0.21,0.48,0.6,0.9,0.92
all,13900000.0,40.0,2.0,5.0,5.0,"Москва, ул. Авангардная, 14 (18 км до центра)",55.847437,37.491305,Водный стадион,12.0,6.0,евроремонт,кирпичные,,3.0,не угловая,пассажирский,14,Двор,наземный паркинг,нет,https://msk.etagi.com/realty/12582410/,raw,0.97,geo_recomputed,13.13,4.26,0.32,0.26,0.3,0.41
all,16200000.0,37.5,1.0,9.0,10.0,"Москва, ул. Тайнинская, 9к1",55.881631,37.6835,Медведково,19.0,24.0,,монолитно-кирпичный,2022.0,2.6,не угловая,"пассажирский, грузовой",9к1,Двор,"наземный паркинг, гостевой паркинг",есть,https://msk.etagi.com/realty/12582609/,raw,1.55,geo_recomputed,15.0,1.46,0.37,0.3,0.37,0.47
all,17600000.0,73.3,3.0,8.0,16.0,"Москва, ул. Ленинский проспект, 123к1 (19 км до центра)",55.646406,37.482592,Тропарево,8.0,10.3,косметический ремонт,блочные,1985.0,,не угловая,"пассажирский, грузовой",123к1,Двор,наземный паркинг,нет,https://msk.etagi.com/realty/12582755/,raw,0.64,geo_recomputed,14.42,1.65,0.24,0.17,0.16,0.1
all,19000000.0,44.0,2.0,5.0,5.0,"Москва, ул. проезд Черепановых, 20",55.838031,37.519081,Коптево,2.0,6.0,евроремонт,кирпичные,1959.0,3.0,не угловая,,20,Двор,"наземный паркинг, гостевой паркинг",нет,https://msk.etagi.com/realty/12582905/,raw,0.19,geo_recomputed,11.29,5.91,0.45,0.63,0.4,0.37
all,18000000.0,52.0,2.0,6.0,9.0,"Москва, ул. Молостовых, 8к1",55.763118,37.830078,Новогиреево,19.0,10.0,евроремонт,панельные,,2.64,не угловая,,8к1,Детская площадка,,нет,https://msk.etagi.com/realty/12582934/,raw,1.55,geo_recomputed,13.47,0.79,0.19,0.12,0.32,0.2
all,15000000.0,49.4,1.0,3.0,8.0,"Москва, ул. Южнобутовская, 44 (22 км до центра)",55.539171,37.535781,Улица Горчакова,5.0,12.1,косметический ремонт,монолитно-кирпичный,2001.0,3.05,не угловая,"пассажирский, грузовой",44,Двор,"наземный паркинг, гостевой паркинг",есть,https://msk.etagi.com/realty/12484709/,raw,0.42,geo_recomputed,24.21,5.19,0.29,0.12,0.02,0.39
all,15500000.0,24.1,0.0,19.0,33.0,"Москва, ул. Малая Очаковская, 4ак1",55.669407,37.439311,Озёрная,8.0,6.0,евроремонт,монолитные,2024.0,2.62,не угловая,,4ак1,Двор,парковка во дворе,нет,https://msk.etagi.com/realty/12559199/,raw,0.64,geo_recomputed,14.38,0.71,0.18,0.9,1.15,0.24
all,41000000.0,92.7,3.0,4.0,8.0,"Москва, ул. Маршала Бирюзова, 2",55.790327,37.501348,Зорге,4.0,9.1,,кирпич красный,,3.0,не угловая,пассажирский,2,Детская площадка,,нет,https://msk.etagi.com/realty/12559200/,raw,0.34,geo_recomputed,8.31,7.35,0.24,0.11,0.45,0.52
all,6500000.0,22.0,0.0,1.0,6.0,"Москва, ул. Гостиничный проезд, 8к1 (10 км до центра)",55.845926,37.576151,Окружная,5.0,10.0,евроремонт,кирпичные,,3.0,не угловая,пассажирский,8к1,Двор,наземный паркинг,нет,https://msk.etagi.com/realty/12568957/,raw,0.46,geo_recomputed,10.71,6.75,0.35,0.38,0.13,0.1
all,32445000.0,97.0,3.0,3.0,21.0,"Москва, ул. Новогиреевская, 5ак2 (10 км до центра)",55.761411,37.796948,Перово,17.0,10.0,косметический ремонт,монолитные,,,не угловая,"грузовой, пассажирский",5ак2,Парковка,подземный паркинг,нет,https://msk.etagi.com/realty/12569578/,raw,1.41,geo_recomputed,11.39,2.86,0.31,0.41,0.13,0.24
all,21300000.0,64.4,3.0,3.0,14.0,"Москва, ул. Чугунные Ворота, 23",55.691623,37.806299,Юго-Восточная,27.0,9.5,косметический ремонт,блочные,1970.0,2.64,не угловая,"пассажирский, грузовой",23,Двор,"наземный паркинг, гостевой паркинг",есть,https://msk.etagi.com/realty/12571061/,raw,2.22,geo_recomputed,13.71,1.44,0.57,0.74,0.44,0.42
all,30000000.0,76.8,3.0,18.0,22.0,"Москва, ул. Родниковая, 30к2 (19 км до центра)",55.632413,37.415694,Саларьево,14.0,11.0,,монолитные,,,не угловая,,30к2,Двор,"наземный паркинг, подземный паркинг",нет,https://msk.etagi.com/realty/12571159/,raw,1.2,geo_recomputed,18.29,2.69,0.82,0.1,0.91,0.6
all,19000000.0,51.6,2.0,12.0,17.0,"Москва, ул. Генерала Тюленева, 25к1",55.619777,37.488404,Тютчевская,5.0,8.4,косметический ремонт,панельные,1995.0,2.64,не угловая,"пассажирский, грузовой",25к1,Двор,"наземный паркинг, гостевой паркинг",нет,https://msk.etagi.com/realty/12573856/,raw,0.45,geo_recomputed,16.74,0.33,0.26,0.09,0.46,0.02
all,21200000.0,41.0,2.0,6.0,8.0,"Москва, ул. Ленинградский проспект, 74к5",55.806413,37.518228,Сокол,3.0,6.0,,блочные,,,,,,,,,https://msk.etagi.com/realty/12574263/,raw,0.21,geo_recomputed,8.57,8.05,0.21,0.13,0.36,0.05
all,15700000.0,33.4,1.0,5.0,43.0,"Москва, ул. Строительный проезд, 9с1 (16 км до центра)",55.836676,37.422243,Трикотажная,18.0,7.2,чистовая отделка,монолитные,,,не угловая,,9с1,Двор,"подземный паркинг, гостевой паркинг, наземный паркинг",нет,https://msk.etagi.com/realty/12574274/,raw,1.51,geo_recomputed,15.31,1.61,0.36,0.35,0.27,0.41
all,21000000.0,54.0,2.0,2.0,17.0,"Москва, ул. Камчатская, 23",55.829123,37.82211,Щелковская,31.0,10.0,косметический ремонт,блоки железобетонные,,,не угловая,,23,Детская площадка,,нет,https://msk.etagi.com/realty/12575381/,raw,2.6,geo_recomputed,15.49,0.3,0.11,0.01,0.97,0.3
all,16500000.0,62.2,4.0,,,"Москва, ул. проезд Шокальского, 27к1",55.880364,37.646085,Медведково,16.0,10.0,евроремонт,,,,не угловая,,27к1,Детская площадка,,нет,https://msk.etagi.com/realty/12558857/,raw,1.29,geo_recomputed,14.38,1.81,0.24,0.2,0.4,0.09
all,27400000.0,81.6,3.0,19.0,23.0,"Москва, ул. Молодцова, 29к2 (11 км до центра)",55.878617,37.624992,Бибирево,18.0,12.0,евроремонт,панельные,2008.0,2.8,не угловая,пассажирский и грузовой,29к2,Двор,наземный паркинг,нет,https://msk.etagi.com/realty/12561309/,raw,1.49,geo_recomputed,14.07,2.3,0.07,0.26,0.19,0.05
all,13000000.0,22.0,0.0,14.0,25.0,"Москва, ул. Тагильская, 2к1 (11 км до центра)",55.818028,37.748475,Бульвар Рокоссовского,9.0,4.0,,монолитно-заливные,,,не угловая,,2к1,Двор,"подземный паркинг, наземный паркинг",нет,https://msk.etagi.com/realty/12561572/,raw,0.73,geo_recomputed,11.07,4.33,0.42,0.13,0.63,0.21
all,11000000.0,32.8,1.0,3.0,9.0,"Москва, ул. Профсоюзная, 136к2",55.628988,37.511158,Коньково,7.0,6.0,косметический ремонт,блочные,,,не угловая,,136к2,Двор,наземный паркинг,нет,https://msk.etagi.com/realty/12562083/,raw,0.59,geo_recomputed,15.18,2.09,0.33,0.25,0.4,0.23
all,42500000.0,130.0,3.0,5.0,33.0,"Москва, ул. 1-й Нагатинский проезд, 11к3 (9 км до центра)",55.676585,37.634092,Нагатинская,12.0,9.0,,монолитные,2011.0,2.64,не угловая,"пассажирский, грузовой",11к3,Двор,наземный паркинг,есть,https://msk.etagi.com/realty/12562279/,raw,1.03,geo_recomputed,8.49,11.15,0.16,0.3,0.02,0.37
all,33500000.0,83.8,2.0,13.0,20.0,"Москва, ул. Автозаводская, 26/1к4 (6 км до центра)",55.705853,37.631874,Тульская,9.0,10.0,черновая отделка,монолитные,,,не угловая,,26/1к4,Двор,"подземный паркинг, наземный паркинг",нет,https://msk.etagi.com/realty/12562418/,raw,0.72,geo_recomputed,5.25,12.46,0.66,0.57,0.46,0.09
all,5600000.0,13.0,0.0,2.0,5.0,"Москва, ул. площадь Журавлёва, 2с2",55.784015,37.702292,Электрозаводская,3.0,3.0,евроремонт,кирпичные,,,не угловая,,2с2,Парковка,наземный паркинг,нет,https://msk.etagi.com/realty/12562482/,raw,0.29,geo_recomputed,6.47,8.73,0.23,0.38,0.34,0.07
all,43000000.0,75.0,3.0,5.0,6.0,"Москва, ул. Новослободская, 57/65 (5 км до центра)",55.787948,37.592114,Савёловская,9.0,9.0,евроремонт,кирпичные,,,не угловая,,57/65,Детская площадка,,нет,https://msk.etagi.com/realty/12562929/,raw,0.73,geo_recomputed,4.24,12.58,0.12,0.12,0.09,0.38
all,19600000.0,48.5,2.0,5.0,5.0,"Москва, ул. Новозаводская, 2к3 (13 км до центра)",55.748518,37.514419,Фили,2.0,8.0,требует ремонта / частичный ремонт,кирпичные,1952.0,3.0,не угловая,,2к3,Двор,наземный паркинг,есть,https://msk.etagi.com/realty/12562945/,raw,0.2,geo_recomputed,6.35,8.82,0.52,0.26,0.02,0.25
all,19900000.0,45.6,2.0,6.0,12.0,"Москва, ул. Милашенкова, 10",55.82662,37.582565,Фонвизинская,7.0,6.0,косметический ремонт,блочные,1980.0,2.65,не угловая,"пассажирский, грузовой",10,Двор,наземный паркинг,нет,https://msk.etagi.com/realty/12563065/,raw,0.55,geo_recomputed,8.53,8.62,0.17,0.08,0.31,0.17
all,23600000.0,53.5,3.0,1.0,5.0,"Москва, ул. Мосфильмовская, 27 (9 км до центра)",55.713131,37.51308,Ломоносовский проспект,12.0,5.6,косметический ремонт,кирпичные,,,не угловая,,27,Детская площадка,,нет,https://msk.etagi.com/realty/12563407/,raw,1.03,geo_recomputed,7.75,6.76,0.15,0.24,0.09,1.26
all,27000000.0,41.5,1.0,18.0,28.0,"Москва, ул. бульвар Братьев Весниных, 2",55.698807,37.63853,ЗИЛ,7.0,12.0,без отделки,монолитно-кирпичный,2020.0,3.0,не угловая,,2,Парковка,наземный паркинг,нет,https://msk.etagi.com/realty/12556204/,raw,0.57,geo_recomputed,6.11,11.99,0.25,0.15,0.14,0.24
all,21500000.0,52.8,2.0,2.0,16.0,"Москва, ул. Маршала Тимошенко, 44",55.751168,37.40469,Крылатское,8.0,9.0,косметический ремонт,кирпичные,1979.0,2.64,не угловая,пассажирский,44,Двор,"наземный паркинг, парковка во дворе",нет,https://msk.etagi.com/realty/12556450/,raw,0.67,geo_recomputed,13.2,2.23,0.62,0.31,0.11,0.02
all,15300000.0,32.7,1.0,7.0,9.0,"Москва, ул. Паустовского, 3 (17 км до центра)",55.600206,37.542913,Новоясеневская,8.0,6.0,,панельные,1977.0,2.64,не угловая,пассажирский,3,Двор,наземный паркинг,есть,https://msk.etagi.com/realty/12556489/,raw,0.66,geo_recomputed,17.5,1.22,0.07,0.21,0.61,0.21
all,17200000.0,36.3,1.0,3.0,40.0,"Москва, ул. 1-й Грайвороновский проезд, 2/2 (8 км до центра)",55.719511,37.728505,Новохохловская,7.0,15.0,без отделки,монолитно-заливные,2027.0,,не угловая,,2/2,Двор,,нет,https://msk.etagi.com/realty/12556725/,raw,0.59,geo_recomputed,7.95,6.77,0.5,0.25,0.12,0.11
all,23000000.0,37.2,1.0,2.0,21.0,"Москва, ул. Очаковское шоссе, 9а (12 км до центра)",55.693683,37.460259,Аминьевская,6.0,9.0,евроремонт,монолитные,2023.0,2.74,не угловая,,9а,Двор,"подземный паркинг, наземный паркинг",нет,https://msk.etagi.com/realty/12556880/,raw,0.46,geo_recomputed,11.7,2.93,0.28,0.13,0.5,0.26
all,16000000.0,31.8,1.0,14.0,21.0,"Москва, ул. Сокольнический Вал, 1 (5 км до центра)",55.794188,37.652795,Рижская,11.0,9.5,,монолитные,2023.0,2.7,не угловая,,1,Двор,наземный паркинг,нет,https://msk.etagi.com/realty/12556911/,raw,0.89,geo_recomputed,5.22,10.33,1.03,0.23,0.57,0.4
all,97000000.0,122.9,4.0,23.0,24.0,"Москва, ул. Кастанаевская, 66",55.732235,37.456873,Кунцевская,8.0,9.0,косметический ремонт,монолитно-кирпичный,2021.0,2.9,не угловая,"пассажирский, грузовой",66,Двор,наземный паркинг,нет,https://msk.etagi.com/realty/12557501/,raw,0.65,geo_recomputed,10.18,4.85,0.15,0.08,0.4,0.29
all,25500000.0,76.7,3.0,9.0,9.0,"Москва, ул. Вешняковская, 2",55.73772,37.820502,Новогиреево,9.0,8.3,косметический ремонт,панельные,,,не угловая,,2,Двор,наземный паркинг,нет,https://msk.etagi.com/realty/12557594/,raw,0.76,geo_recomputed,12.93,1.29,0.11,0.2,0.6,0.38
all,18750000.0,41.7,2.0,4.0,5.0,"Москва, ул. Поклонная, 8 (12 км до центра)",55.736382,37.530211,Кутузовская,6.0,9.0,требует ремонта / частичный ремонт,панельные,1962.0,,угловая,,8,Двор,наземный паркинг,нет,https://msk.etagi.com/realty/12557599/,raw,0.52,geo_recomputed,5.63,8.91,0.13,0.19,0.07,0.37
all,22500000.0,44.9,2.0,6.0,9.0,"Москва, ул. Винницкая, 11",55.698046,37.491242,Раменки,11.0,6.0,,арболитовые,1970.0,2.64,не угловая,пассажирский,11,Двор,"наземный паркинг, гостевой паркинг",есть,https://msk.etagi.com/realty/12557621/,raw,0.89,geo_recomputed,9.84,4.93,0.18,0.05,0.31,0.37
all,33900000.0,65.0,3.0,5.0,8.0,"Москва, ул. Новая Басманная, 4-6с3",55.768881,37.653864,Красные ворота,5.0,9.0,косметический ремонт,кирпичные,1932.0,2.64,не угловая,"пассажирский, грузовой",4-6с3,Двор,наземный паркинг,есть,https://msk.etagi.com/realty/12557623/,raw,0.38,geo_recomputed,3.03,11.86,0.08,0.24,0.13,0.25
all,14700000.0,34.8,1.0,3.0,9.0,"Москва, ул. 3-я Карачаровская, 9к1",55.734719,37.749032,Стахановская,10.0,6.0,косметический ремонт,кирпичные,1968.0,2.64,не угловая,"пассажирский, грузовой",9к1,Двор,,нет,https://msk.etagi.com/realty/12547056/,raw,0.86,geo_recomputed,8.57,5.74,0.1,0.14,0.15,0.34
all,12800000.0,38.0,1.0,13.0,17.0,"Москва, ул. Ангарская, 20к1",55.874935,37.516323,Грачёвская,9.0,8.0,косметический ремонт,панельные,,,не угловая,"пассажирский, грузовой",20к1,Двор,,нет,https://msk.etagi.com/realty/12547251/,raw,0.76,geo_recomputed,14.99,2.26,0.17,0.16,0.25,0.11
all,28000000.0,74.3,3.0,4.0,5.0,"Москва, ул. Красноармейская, 24",55.801136,37.542329,Аэропорт,9.0,7.9,косметический ремонт,кирпич красный,,2.8,не угловая,,24,Парковка,"наземный паркинг, парковка во дворе, гостевой паркинг",нет,https://msk.etagi.com/realty/12547257/,raw,0.74,geo_recomputed,7.11,9.64,0.11,0.29,0.12,0.52
all,19990000.0,38.5,1.0,3.0,27.0,"Москва, ул. Амурская, 1ак2",55.807856,37.759373,Локомотив,12.0,12.0,евроремонт,монолитные,2020.0,3.0,не угловая,"пассажирский, грузовой",1ак2,Двор,"наземный паркинг, гостевой паркинг",есть,https://msk.etagi.com/realty/12547519/,raw,1.0,geo_recomputed,10.91,4.7,0.13,0.24,0.1,0.29
all,29900000.0,67.9,2.0,2.0,15.0,"Москва, ул. Феодосийская, 7к5 (18 км до центра)",55.559746,37.575639,Бульвар Дмитрия Донского,11.0,22.0,,монолитные,2017.0,2.7,не угловая,"пассажирский, грузовой",7к5,Двор,"наземный паркинг, гостевой паркинг",есть,https://msk.etagi.com/realty/12547547/,raw,0.94,geo_recomputed,21.55,2.1,0.43,0.44,0.48,0.88
all,20000000.0,53.0,2.0,17.0,25.0,"Москва, ул. Муравская, 42к1 (19 км до центра)",55.860752,37.37244,Пятницкое шоссе,17.0,14.0,евроремонт,панельные,2019.0,2.7,не угловая,"пассажирский, грузовой",42к1,Двор,"наземный паркинг, подземный паркинг",есть,https://msk.etagi.com/realty/12547596/,raw,1.44,geo_recomputed,19.41,1.55,0.19,0.42,1.16,1.21
all,29950000.0,89.0,3.0,5.0,31.0,"Москва, ул. Тагильская, 6/1к2 (10 км до центра)",55.814963,37.756209,Бульвар Рокоссовского,15.0,21.9,требует ремонта / частичный ремонт,монолитно-кирпичный,2026.0,2.4,не угловая,,6/1к2,Двор,подземный паркинг,нет,https://msk.etagi.com/realty/12547781/,raw,1.23,geo_recomputed,11.23,4.25,0.6,0.27,0.81,0.19
all,17100000.0,27.0,0.0,7.0,32.0,"Москва, ул. Багратионовский проезд",55.740917,37.506926,Фили,7.0,3.0,черновая отделка,монолитные,2025.0,2.74,не угловая,грузовой,к7,Двор,"наземный паркинг, парковка во дворе",нет,https://msk.etagi.com/realty/12550409/,raw,0.6,geo_recomputed,6.92,8.01,0.38,0.35,0.31,0.23
all,16990000.0,57.0,3.0,1.0,9.0,"Москва, ул. Молостовых, 4к4 (12 км до центра)",55.763776,37.831794,Новогиреево,20.0,7.0,косметический ремонт,кирпичные,,,не угловая,,4к4,Детская площадка,,нет,https://msk.etagi.com/realty/12550810/,raw,1.67,geo_recomputed,13.59,0.68,0.21,0.11,0.33,0.09
all,21990000.0,63.0,3.0,9.0,14.0,"Москва, ул. Конаковский проезд, 8к1 (13 км до центра)",55.847513,37.482079,Речной вокзал,10.0,8.4,косметический ремонт,монолитные,,2.64,не угловая,,8к1,Двор,наземный паркинг,нет,https://msk.etagi.com/realty/12551951/,raw,0.81,geo_recomputed,13.49,4.08,0.18,0.12,0.44,0.34
all,21500000.0,37.0,1.0,28.0,39.0,"Москва, ул. Амурская, 1ак4",55.808913,37.758042,Локомотив,12.0,10.0,,монолитные,2020.0,3.0,не угловая,грузовой,1ак4,Двор,подземный паркинг,есть,https://msk.etagi.com/realty/12552275/,raw,1.0,geo_recomputed,10.91,4.67,0.24,0.35,0.2,0.37
all,27500000.0,36.1,0.0,7.0,43.0,"Москва, ул. Шелепихинская набережная, 40к2 (7 км до центра)",55.767656,37.501878,Хорошево,13.0,9.0,,монолитно-кирпичный,2023.0,3.0,не угловая,,40к2,Двор,подземный паркинг,есть,https://msk.etagi.com/realty/12543263/,raw,1.11,geo_recomputed,7.32,8.28,0.41,0.75,0.74,0.64
all,13500000.0,38.6,1.0,2.0,12.0,"Москва, ул. проезд Дежнёва, 27к3",55.869178,37.631766,Отрадное,21.0,8.5,косметический ремонт,панельные,1983.0,2.64,не угловая,"пассажирский, грузовой",27к3,Двор,"наземный паркинг, гостевой паркинг",нет,https://msk.etagi.com/realty/12543890/,raw,1.75,geo_recomputed,13.05,3.21,0.33,0.1,0.58,0.28
all,16830000.0,38.3,1.0,22.0,22.0,"Москва, ул. Тарусская, 18к2 (18 км до центра)",55.602225,37.528765,Ясенево,6.0,10.0,евроремонт,панельные,1984.0,2.64,не угловая,"пассажирский, грузовой, пассажирский и грузовой",18к2,Двор,наземный паркинг,есть,https://msk.etagi.com/realty/12544510/,raw,0.53,geo_recomputed,17.54,1.08,0.15,0.3,0.18,0.4
all,12500000.0,38.4,2.0,1.0,12.0,"Москва, ул. Попутная, 1к2",55.655051,37.382852,Солнечная,3.0,6.4,косметический ремонт,панельные,,2.65,не угловая,"пассажирский, грузовой",1к2,Двор,наземный паркинг,нет,https://msk.etagi.com/realty/12544623/,raw,0.22,geo_recomputed,18.15,3.16,0.58,0.3,0.98,0.18
all,19000000.0,64.0,3.0,1.0,17.0,"Москва, ул. Саянская, 6",55.766466,37.827033,Новогиреево,21.0,7.0,косметический ремонт,блочные,1993.0,2.64,не угловая,"пассажирский, грузовой",6,Двор,наземный паркинг,есть,https://msk.etagi.com/realty/12544828/,raw,1.76,geo_recomputed,13.32,0.99,0.32,0.17,0.74,0.08
all,28000000.0,49.9,1.0,18.0,22.0,"Москва, ул. 3-я Хорошёвская, 17а (8 км до центра)",55.784607,37.495348,Зорге,8.0,17.2,косметический ремонт,монолитные,2023.0,3.1,не угловая,"пассажирский, грузовой",17а,Двор,"подземный паркинг, гостевой паркинг",есть,https://msk.etagi.com/realty/12544951/,raw,0.67,geo_recomputed,8.34,7.17,0.55,0.24,0.44,0.26
all,16000000.0,44.9,2.0,7.0,12.0,"Москва, ул. Коровинское шоссе, 23к1 (16 км до центра)",55.876945,37.52342,Грачёвская,15.0,9.0,косметический ремонт,панельные,1967.0,2.64,не угловая,"пассажирский, грузовой",23к1,Двор,наземный паркинг,есть,https://msk.etagi.com/realty/12545023/,raw,1.22,geo_recomputed,15.02,2.35,0.34,0.17,0.29,0.45
all,52000000.0,70.0,2.0,10.0,19.0,"Москва, ул. Шелепихинская набережная, 34к1зд4 (7 км до центра)",55.761259,37.512631,Шелепиха,11.0,17.0,,монолитные железо-керамзитно бетонные,,,не угловая,,34к1зд4,Двор,подземный паркинг,нет,https://msk.etagi.com/realty/12545171/,raw,0.91,geo_recomputed,6.52,8.99,0.24,0.18,0.58,0.68
all,34000000.0,50.0,2.0,4.0,9.0,"Москва, ул. Учебный переулок, 1",55.724616,37.558823,Спортивная,4.0,10.0,требует ремонта / частичный ремонт,монолитно-кирпичный,,2.7,не угловая,"пассажирский, грузовой",1,Двор,наземный паркинг,нет,https://msk.etagi.com/realty/12545304/,raw,0.32,geo_recomputed,4.69,9.9,0.11,0.13,0.2,0.23
all,6540500.0,31.5,0.0,1.0,2.0,"Москва, ул. Перерва, 8с1",55.654157,37.716405,Перерва,9.0,10.0,,монолитные,,2.64,не угловая,,8с1,Двор,,нет,https://msk.etagi.com/realty/12545430/,raw,0.74,geo_recomputed,12.6,5.78,0.16,0.13,0.97,0.0
all,40000000.0,69.0,2.0,15.0,20.0,"Москва, ул. Мустая Карима, 12 (8 км до центра)",55.688532,37.659003,Технопарк,9.0,10.0,черновая отделка,монолитно-каркасные,,,не угловая,,12,Двор,"подземный паркинг, наземный паркинг",нет,https://msk.etagi.com/realty/12545718/,raw,0.79,geo_recomputed,7.58,10.7,0.61,0.28,0.5,0.5
all,18500000.0,44.3,2.0,5.0,9.0,"Москва, ул. Бестужевых, 13б (14 км до центра)",55.871854,37.602948,Отрадное,10.0,6.5,,блочные,1976.0,2.64,не угловая,пассажирский,13б,Двор,наземный паркинг,есть,https://msk.etagi.com/realty/12181800/,raw,0.85,geo_recomputed,13.33,3.45,0.39,0.11,0.17,0.18
all,23900000.0,60.1,2.0,27.0,37.0,"Москва, ул. Ленинградское шоссе, 108",55.860514,37.46767,Беломорская,9.0,10.2,евроремонт,монолитные,2014.0,2.75,не угловая,"пассажирский, грузовой",108,Двор,"наземный паркинг, гостевой паркинг",есть,https://msk.etagi.com/realty/12509805/,raw,0.75,geo_recomputed,15.18,2.49,0.57,0.21,0.69,0.19
all,16500000.0,27.1,0.0,5.0,33.0,"Москва, ул. Ижорская, 6к1",55.881631,37.502202,Ховрино,12.0,5.0,косметический ремонт,панельные,2022.0,2.65,не угловая,"пассажирский, пассажирский и грузовой",6к1,Двор,наземный паркинг,есть,https://msk.etagi.com/realty/12512583/,raw,1.0,geo_recomputed,16.04,1.13,0.6,0.45,0.64,0.42
all,21800000.0,67.0,3.0,16.0,22.0,"Москва, ул. Неманский проезд, 13к1",55.807881,37.391781,Строгино,10.0,9.0,требует ремонта / частичный ремонт,железобетонные панели,,2.65,не угловая,,13к1,Детская площадка,,нет,https://msk.etagi.com/realty/12535813/,raw,0.8,geo_recomputed,15.3,0.22,0.32,0.21,0.11,0.18
all,25900000.0,67.5,3.0,1.0,16.0,"Москва, ул. Ленинский проспект, 123к3",55.644862,37.485152,Тропарево,10.0,10.0,евроремонт,панельные,1976.0,2.64,не угловая,"пассажирский, грузовой",123к3,Двор,"наземный паркинг, гостевой паркинг",есть,https://msk.etagi.com/realty/12535873/,raw,0.8,geo_recomputed,14.47,1.69,0.21,0.11,0.18,0.07
all,32000000.0,61.7,2.0,21.0,22.0,"Москва, ул. 3-я Хорошёвская, 17а (8 км до центра)",55.784607,37.495348,Зорге,8.0,18.6,,монолитные,2023.0,3.1,не угловая,"пассажирский, грузовой",17а,Двор,"подземный паркинг, гостевой паркинг",есть,https://msk.etagi.com/realty/12535980/,raw,0.67,geo_recomputed,8.34,7.17,0.55,0.24,0.44,0.26
all,17000000.0,57.0,3.0,1.0,22.0,"Москва, ул. Южнобутовская, 81",55.544092,37.540623,Бульвар Адмирала Ушакова,2.0,5.0,евроремонт,панельные,2003.0,3.2,не угловая,,81,Двор,"наземный паркинг, гостевой паркинг",нет,https://msk.etagi.com/realty/12536179/,raw,0.16,geo_recomputed,23.61,4.56,0.24,0.17,0.07,0.45
all,16000000.0,50.7,2.0,12.0,13.0,"Москва, ул. Ленинградское шоссе, 228к7 (24 км до центра)",55.93206,37.388002,Молжаниново,12.0,10.5,евроремонт,панельные,2023.0,3.24,не угловая,пассажирский и грузовой,228к7,Двор,наземный паркинг,нет,https://msk.etagi.com/realty/12538833/,raw,0.98,geo_recomputed,24.53,6.61,0.96,2.3,2.76,0.72
all,11800000.0,21.5,0.0,9.0,25.0,"Москва, ул. Ясеневая, 12к5",55.602566,37.734192,Зябликово,15.0,6.0,евроремонт,панельные,2020.0,2.64,не угловая,"пассажирский, пассажирский и грузовой",12к5,Двор,"наземный паркинг, парковка во дворе, подземный паркинг",есть,https://msk.etagi.com/realty/12538884/,raw,1.25,geo_recomputed,18.22,0.77,0.23,0.13,0.44,0.21
all,24000000.0,58.2,2.0,17.0,17.0,"Москва, ул. Новочерёмушкинская, 52к2",55.670361,37.562883,Новые Черемушки,6.0,9.0,евроремонт,панельные,1994.0,2.64,не угловая,"пассажирский, грузовой",52к2,Двор,,нет,https://msk.etagi.com/realty/12539123/,raw,0.53,geo_recomputed,9.68,7.34,0.12,0.08,0.35,0.19
all,15000000.0,38.3,1.0,5.0,22.0,"Москва, ул. Литовский бульвар, 5/10 (17 км до центра)",55.613778,37.535763,Ясенево,10.0,9.0,косметический ремонт,блочные,1964.0,,не угловая,"пассажирский, грузовой",5/10,Двор,наземный паркинг,нет,https://msk.etagi.com/realty/12539395/,raw,0.86,geo_recomputed,16.19,2.43,0.25,0.31,0.36,0.14
all,20000000.0,46.7,2.0,1.0,9.0,"Москва, ул. Шверника, 9к3 (7 км до центра)",55.694256,37.585817,Академическая,12.0,9.6,евроремонт,панельные,1965.0,2.64,не угловая,пассажирский,9к3,Двор,наземный паркинг,нет,https://msk.etagi.com/realty/12522714/,raw,0.96,geo_recomputed,6.71,10.01,0.27,0.09,0.33,0.31
all,52800000.0,74.8,3.0,6.0,28.0,"Москва, ул. бульвар Генерала Карбышева, 11",55.780411,37.468838,Народное Ополчение,14.0,35.0,,монолитные,,2.5,не угловая,"пассажирский, грузовой",11,Двор,,нет,https://msk.etagi.com/realty/12522855/,raw,1.13,geo_recomputed,9.7,5.8,0.12,0.29,0.11,0.11
all,27900000.0,75.8,3.0,5.0,5.0,"Москва, ул. Лобанова, 4",55.701592,37.659021,Автозаводская,7.0,10.0,косметический ремонт,кирпичные,1957.0,3.0,не угловая,"пассажирский, грузовой",4,Двор,наземный паркинг,нет,https://msk.etagi.com/realty/12523007/,raw,0.57,geo_recomputed,6.25,10.72,0.41,0.15,0.29,0.38
all,15500000.0,46.5,2.0,5.0,5.0,"Москва, ул. Волгоградский проспект, 55 (8 км до центра)",55.710317,37.73315,Текстильщики,2.0,6.0,косметический ремонт,панельные,,2.64,не угловая,,55,Двор,"наземный паркинг, гостевой паркинг",нет,https://msk.etagi.com/realty/12523247/,raw,0.14,geo_recomputed,8.71,6.23,0.25,0.11,0.5,0.17
all,29999999.0,51.1,2.0,8.0,9.0,"Москва, ул. Кутузовский проспект, 23к1 (5 км до центра)",55.744541,37.548375,Студенческая,8.0,7.5,косметический ремонт,кирпичные,1969.0,3.2,не угловая,,23к1,Детская площадка,,нет,https://msk.etagi.com/realty/12523289/,raw,0.64,geo_recomputed,4.29,10.36,0.21,0.35,0.12,0.14
all,22000000.0,61.0,2.0,3.0,14.0,"Москва, ул. Суздальская, 10к3 (24 км до центра)",55.737172,37.85002,Новокосино,15.0,9.0,косметический ремонт,панельные,1996.0,2.64,не угловая,"пассажирский, грузовой",10к3,Двор,наземный паркинг,есть,https://msk.etagi.com/realty/12523359/,raw,1.25,geo_recomputed,14.77,0.54,0.2,0.15,0.1,0.21
all,18990000.0,39.3,1.0,42.0,53.0,"Москва, ул. Волоколамское шоссе, 97 (17 км до центра)",55.830639,37.399255,Трикотажная,3.0,4.0,без отделки,монолитные,2025.0,3.0,не угловая,,97,Детская площадка,,нет,https://msk.etagi.com/realty/12523411/,raw,0.28,geo_recomputed,16.09,0.24,0.97,0.9,1.33,0.15
all,18500000.0,37.1,2.0,6.0,9.0,"Москва, ул. Большая Филёвская, 53к2",55.739215,37.46909,Пионерская,5.0,9.0,евроремонт,блочные,1965.0,2.56,не угловая,"пассажирский, грузовой",53к2,Двор,наземный паркинг,нет,https://msk.etagi.com/realty/12523523/,raw,0.38,geo_recomputed,9.28,5.8,0.54,0.09,0.51,0.19
all,24860000.0,53.3,2.0,22.0,53.0,"Москва, ул. Волоколамское шоссе, 97 (17 км до центра)",55.830639,37.399255,Трикотажная,3.0,24.0,без отделки,монолитные,2025.0,,не угловая,,97,Детская площадка,,нет,https://msk.etagi.com/realty/12523571/,raw,0.28,geo_recomputed,16.09,0.24,0.97,0.9,1.33,0.15
all,19100000.0,51.0,3.0,9.0,9.0,"Москва, ул. Декабристов, 21а (12 км до центра)",55.864258,37.609425,Отрадное,3.0,6.0,косметический ремонт,панельные,1976.0,2.64,не угловая,"пассажирский, грузовой",21а,Двор,"наземный паркинг, гостевой паркинг",есть,https://msk.etagi.com/realty/12523579/,raw,0.27,geo_recomputed,12.47,4.11,0.15,0.09,0.32,0.14
all,67500000.0,79.0,3.0,29.0,52.0,"Москва, ул. Мичуринский проспект, 56",55.695804,37.485664,Мичуринский проспект,9.0,19.0,,монолитные,2020.0,3.0,не угловая,"пассажирский, грузовой, пассажирский и грузовой",56,Двор,"подземный паркинг, наземный паркинг",нет,https://msk.etagi.com/realty/12523657/,raw,0.78,geo_recomputed,10.27,4.54,0.34,0.33,0.13,0.41
all,55000000.0,82.5,3.0,2.0,5.0,"Москва, ул. Маросейка, 10/1с1",55.757602,37.637012,Китай-город,5.0,9.0,косметический ремонт,кирпичные,1880.0,2.64,не угловая,"пассажирский, грузовой",10/1с1,Двор,"наземный паркинг, гостевой паркинг",есть,https://msk.etagi.com/realty/12514593/,raw,0.38,geo_recomputed,1.47,12.88,0.39,0.27,0.06,0.06
all,11100000.0,31.3,1.0,5.0,9.0,"Москва, ул. Зарайская, 39 (15 км до центра)",55.72964,37.771795,Плющево,2.0,10.0,косметический ремонт,блочные,1965.0,2.64,не угловая,пассажирский,39,Двор,наземный паркинг,есть,https://msk.etagi.com/realty/12514885/,raw,0.18,geo_recomputed,10.09,4.28,0.19,0.22,0.53,0.04
all,30000000.0,70.0,3.0,1.0,5.0,"Москва, ул. Нахимовский проспект, 54/26",55.682047,37.556703,Профсоюзная,7.0,10.0,требует ремонта / частичный ремонт,блочные,1958.0,2.95,не угловая,пассажирский,54/26,Двор,наземный паркинг,нет,https://msk.etagi.com/realty/12514915/,raw,0.61,geo_recomputed,8.63,7.73,0.24,0.09,0.41,0.14
all,16000000.0,58.3,3.0,6.0,9.0,"Москва, ул. Востряковский проезд, 11к1 (20 км до центра)",55.579673,37.645797,Красный строитель,27.0,10.0,косметический ремонт,монолитно-кирпичный,,,не угловая,,11к1,Парковка,наземный паркинг,нет,https://msk.etagi.com/realty/12514930/,raw,2.22,geo_recomputed,19.28,0.71,0.21,0.08,0.58,0.16
all,27000000.0,74.4,3.0,7.0,17.0,"Москва, ул. Боровское шоссе, 36",55.639756,37.353791,Новопеределкино,2.0,9.0,чистовая отделка,сборно-монолитный железобетонный каркас,1989.0,2.64,не угловая,"пассажирский, грузовой",36,Двор,наземный паркинг,есть,https://msk.etagi.com/realty/12514965/,raw,0.14,geo_recomputed,20.63,5.54,0.26,0.28,0.46,0.03
all,12900000.0,38.9,1.0,1.0,14.0,"Москва, ул. Старобитцевская, 11 (17 км до центра)",55.574803,37.587847,Улица Старокачаловская,12.0,9.0,косметический ремонт,панельные,1992.0,2.64,не угловая,пассажирский,11,Двор,наземный паркинг,есть,https://msk.etagi.com/realty/12514997/,raw,0.97,geo_recomputed,19.8,0.26,0.12,0.18,0.35,0.32
all,17500000.0,53.5,2.0,1.0,16.0,"Москва, ул. Барышиха, 25к1",55.845744,37.346578,Митино,11.0,9.0,косметический ремонт,панельные,1999.0,2.64,не угловая,пассажирский,25к1,Двор,"наземный паркинг, гостевой паркинг",есть,https://msk.etagi.com/realty/12515215/,raw,0.91,geo_recomputed,19.77,2.82,0.25,0.15,0.29,0.12
all,19900000.0,58.0,2.0,,,"Москва, ул. Борисовская, 23/7",55.790534,37.735503,Измайлово,6.0,9.0,евроремонт,,,,не угловая,,23/7,Детская площадка,,нет,https://msk.etagi.com/realty/12515231/,raw,0.5,geo_recomputed,8.63,6.61,0.16,0.16,0.22,0.38
all,15500000.0,43.5,2.0,1.0,5.0,"Москва, ул. Народного Ополчения, 52к3 (10 км до центра)",55.794796,37.501115,Панфиловская,6.0,6.0,евроремонт,кирпичные,,2.8,не угловая,"пассажирский, грузовой",52к3,Двор,,нет,https://msk.etagi.com/realty/12515296/,raw,0.51,geo_recomputed,8.59,7.22,0.31,0.33,0.66,0.52
all,13900000.0,38.0,2.0,2.0,9.0,"Москва, ул. Кронштадтский бульвар, 41",55.85058,37.507762,Коптево,17.0,10.0,косметический ремонт,кирпичные,1967.0,2.64,не угловая,пассажирский,41,Двор,"наземный паркинг, гостевой паркинг",есть,https://msk.etagi.com/realty/12515343/,raw,1.44,geo_recomputed,12.85,4.35,0.33,0.14,0.6,0.27
all,18500000.0,39.1,1.0,13.0,22.0,"Москва, ул. Красная Сосна, 3а (11 км до центра)",55.850565,37.684173,Ростокино,19.0,13.7,евроремонт,монолитные,,2.7,не угловая,"грузовой, пассажирский",3а,Двор,"подземный паркинг, наземный паркинг",нет,https://msk.etagi.com/realty/12515425/,raw,1.61,geo_recomputed,11.75,4.36,0.28,0.2,1.25,0.32
all,14000000.0,38.4,1.0,2.0,14.0,"Москва, ул. Привольная, 77",,,Жулебино,15.0,8.0,косметический ремонт,панельные,1997.0,2.64,не угловая,"пассажирский, грузовой",77,Двор,"наземный паркинг, гостевой паркинг",есть,https://msk.etagi.com/realty/12496120/,raw,,raw,,,,,,
all,25900000.0,43.6,2.0,2.0,25.0,"Москва, ул. Гришина, 16 (13 км до центра)",55.722593,37.418191,Рабочий Посёлок,6.0,7.0,,кирпичные,,3.0,не угловая,грузовой,16,Двор,"подземный паркинг, наземный паркинг",нет,https://msk.etagi.com/realty/12504420/,raw,0.51,geo_recomputed,12.79,2.21,0.24,0.04,0.85,0.36
all,19350000.0,47.1,2.0,1.0,9.0,"Москва, ул. Планетная, 43",55.805093,37.539661,Аэропорт,9.0,7.0,евроремонт,кирпичные,1961.0,2.7,не угловая,пассажирский,43,Двор,"наземный паркинг, гостевой паркинг",есть,https://msk.etagi.com/realty/12504452/,raw,0.77,geo_recomputed,7.56,9.39,0.18,0.1,0.17,0.05
all,27500000.0,65.0,2.0,2.0,24.0,"Москва, ул. Фестивальная, 15к2 (14 км до центра)",55.858544,37.474875,Речной вокзал,6.0,12.0,косметический ремонт,монолитные,,,не угловая,,15к2,Двор,подземный паркинг,нет,https://msk.etagi.com/realty/12504806/,raw,0.5,geo_recomputed,14.74,2.78,0.27,0.31,0.66,0.17
all,10850000.0,39.0,1.0,5.0,9.0,"Москва, ул. Южнобутовская, 125",55.532686,37.514554,Бунинская аллея,7.0,8.6,косметический ремонт,панельные,1998.0,2.64,не угловая,грузовой,125,Двор,наземный паркинг,есть,https://msk.etagi.com/realty/12504918/,raw,0.59,geo_recomputed,25.22,6.37,0.3,0.08,0.64,0.37
all,38700000.0,96.0,4.0,28.0,46.0,"Москва, ул. Мукомольный проезд, 2",55.750783,37.527293,Тестовская,2.0,10.0,евроремонт,монолитные,2019.0,2.7,не угловая,грузовой,2,Двор,подземный паркинг,есть,https://msk.etagi.com/realty/12507292/,raw,0.19,geo_recomputed,5.53,9.66,0.21,0.24,0.39,0.49
all,30000000.0,43.0,1.0,13.0,15.0,"Москва, ул. Лётная, 95бк2 (14 км до центра)",55.820733,37.423932,Спартак,9.0,14.0,евроремонт,монолитно-кирпичный,2025.0,3.0,не угловая,,95бк2,Парковка,"наземный паркинг, подземный паркинг",нет,https://msk.etagi.com/realty/12507512/,raw,0.76,geo_recomputed,14.2,1.95,0.51,0.38,0.62,0.65
all,19900000.0,64.0,2.0,14.0,17.0,"Москва, ул. Покровская, 21 (33 км до центра)",55.70142,37.930033,Некрасовка,3.0,10.0,евроремонт,панельные,2015.0,2.7,не угловая,"пассажирский, грузовой",21,Двор,"наземный паркинг, гостевой паркинг",есть,https://msk.etagi.com/realty/12507906/,raw,0.28,geo_recomputed,20.48,5.93,0.35,0.23,0.29,0.11
all,12000000.0,33.0,1.0,8.0,9.0,"Москва, ул. Донбасская, 6",55.594214,37.659892,Царицыно,33.0,6.7,косметический ремонт,сборно-монолитный железобетонный каркас,1973.0,2.64,не угловая,пассажирский,6,Двор,наземный паркинг,есть,https://msk.etagi.com/realty/12509088/,raw,2.74,geo_recomputed,17.79,2.41,0.26,0.2,0.29,0.17
all,20870000.0,48.4,2.0,11.0,12.0,"Москва, ул. Волховский переулок, 2 (6 км до центра)",55.772735,37.68403,Бауманская,4.0,9.0,косметический ремонт,блочные,1974.0,2.64,не угловая,"пассажирский, грузовой",2,Двор,наземный паркинг,есть,https://msk.etagi.com/realty/12509657/,raw,0.31,geo_recomputed,4.85,9.95,0.31,0.34,0.04,0.07
all,13100000.0,34.8,1.0,5.0,12.0,"Москва, ул. 2-я Пугачёвская, 3к1",55.797048,37.729835,Преображенская площадь,12.0,9.0,черновая отделка,блочные,1968.0,2.64,не угловая,"пассажирский, грузовой",3к1,Двор,наземный паркинг,нет,https://msk.etagi.com/realty/12509670/,raw,1.02,geo_recomputed,8.71,6.84,0.15,0.07,0.27,0.54
all,15800000.0,45.0,2.0,6.0,9.0,"Москва, ул. Старый Гай, 14",55.738231,37.82785,Новогиреево,11.0,7.0,косметический ремонт,панельные,1971.0,2.64,не угловая,"пассажирский, грузовой",14,Двор,"наземный паркинг, гостевой паркинг",нет,https://msk.etagi.com/realty/12491161/,raw,0.91,geo_recomputed,13.37,0.83,0.47,0.1,0.15,0.11
all,52000000.0,87.4,3.0,40.0,55.0,"Москва, ул. 4-я улица Марьиной Рощи, 12к2 (5 км до центра)",55.797928,37.625253,Марьина Роща,6.0,19.0,требует ремонта / частичный ремонт,монолитно-кирпичный,2024.0,3.1,не угловая,,12к2,Двор,подземный паркинг,нет,https://msk.etagi.com/realty/12498802/,raw,0.5,geo_recomputed,5.12,11.08,0.5,0.34,0.78,0.51
all,12400000.0,32.6,1.0,2.0,9.0,"Москва, ул. Полбина, 20",55.687091,37.731057,Печатники,8.0,5.9,косметический ремонт,панельные,1969.0,2.64,не угловая,пассажирский,20,Двор,наземный паркинг,есть,https://msk.etagi.com/realty/12498991/,raw,0.67,geo_recomputed,10.23,6.19,0.16,0.16,0.89,0.11
all,18000000.0,42.1,2.0,3.0,5.0,"Москва, ул. Гвардейская, 6",55.72201,37.425459,Рабочий Посёлок,10.0,5.5,косметический ремонт,панельные,1966.0,2.64,не угловая,,6,Двор,"наземный паркинг, гостевой паркинг",нет,https://msk.etagi.com/realty/12499303/,raw,0.83,geo_recomputed,12.37,2.63,0.21,0.16,0.39,0.25
all,16300000.0,44.0,2.0,2.0,9.0,"Москва, ул. Академика Волгина, 9к2 (15 км до центра)",55.65177,37.520285,Университет дружбы народов,11.0,6.0,косметический ремонт,панельные,1967.0,2.64,не угловая,пассажирский,9к2,Двор,наземный паркинг,есть,https://msk.etagi.com/realty/12499325/,raw,0.89,geo_recomputed,12.66,3.97,0.11,0.08,0.24,0.38
all,22000000.0,47.2,2.0,14.0,14.0,"Москва, ул. Семёновский Вал, 6",55.778234,37.715174,Семеновская,7.0,7.0,,панельные,1971.0,2.64,не угловая,"пассажирский, грузовой",6,Двор,,нет,https://msk.etagi.com/realty/12499504/,raw,0.6,geo_recomputed,6.87,7.96,0.56,0.36,0.41,0.12
all,13500000.0,25.8,0.0,13.0,26.0,"73Б, Дмитровское шоссе, район Западное Дегунино, Москва, Центральный федеральный округ, 127238, Россия",55.856174,37.556532,Верхние Лихоборы,5.0,4.0,черновая отделка,монолитные,,,не угловая,,74,Детская площадка,,нет,https://msk.etagi.com/realty/12499587/,geo,0.4,geo_recomputed,12.14,5.45,0.6,0.66,0.52,0.08
all,19900000.0,47.1,2.0,25.0,43.0,"Москва, ул. Строительный проезд, 9с1 (16 км до центра)",55.836676,37.422243,Трикотажная,18.0,10.0,без отделки,монолитные,,2.9,не угловая,,9с1,Двор,"подземный паркинг, гостевой паркинг, наземный паркинг",нет,https://msk.etagi.com/realty/12499615/,raw,1.51,geo_recomputed,15.31,1.61,0.36,0.35,0.27,0.41
all,22000000.0,67.4,3.0,9.0,9.0,"Москва, ул. Онежская, 18к3 (15 км до центра)",55.850651,37.520563,Коптево,15.0,8.0,косметический ремонт,панельные,1973.0,2.64,не угловая,пассажирский,18к3,Двор,наземный паркинг,есть,https://msk.etagi.com/realty/12500379/,raw,1.23,geo_recomputed,12.45,4.67,0.37,0.28,0.19,0.48
all,19300000.0,56.4,3.0,6.0,9.0,"Москва, ул. Бестужевых, 7б (11 км до центра)",55.870925,37.598834,Отрадное,10.0,8.0,косметический ремонт,панельные,1975.0,2.6,не угловая,"пассажирский, грузовой",7б,Двор,наземный паркинг,есть,https://msk.etagi.com/realty/12500448/,raw,0.84,geo_recomputed,13.24,3.63,0.3,0.12,0.39,0.18
all,12500000.0,31.2,1.0,4.0,5.0,"Москва, ул. Радужная, 14к2",55.860848,37.66724,Свиблово,13.0,9.0,требует ремонта / частичный ремонт,кирпичные,2010.0,,не угловая,"пассажирский, грузовой",14к2,Двор,наземный паркинг,нет,https://msk.etagi.com/realty/12500477/,raw,1.05,geo_recomputed,12.5,3.82,0.16,0.26,0.38,0.21
all,22000000.0,63.4,2.0,4.0,14.0,"Москва, ул. Боровское шоссе, 18к1",55.649639,37.369597,Боровское шоссе,4.0,16.0,косметический ремонт,панельные,2003.0,2.75,не угловая,"пассажирский, грузовой",18к1,Двор,наземный паркинг,нет,https://msk.etagi.com/realty/12487733/,raw,0.3,geo_recomputed,19.17,4.16,0.23,0.22,1.17,0.59
all,23499999.0,37.0,1.0,4.0,26.0,"9 к6, улица Зорге, Хорошёвский район, Москва, Центральный федеральный округ, 125252, Россия",55.783038,37.508661,Зорге,7.0,,,монолитно-кирпичный,,,не угловая,,9к1,Детская площадка,,нет,https://msk.etagi.com/realty/12489130/,geo,0.59,geo_recomputed,7.52,8.02,0.24,0.33,0.39,0.56
all,14000000.0,31.0,1.0,3.0,20.0,"Москва, ул. Маресьева, 6к2 (19 км до центра)",55.709825,37.93748,Некрасовка,12.0,8.0,евроремонт,монолитные,2022.0,2.7,не угловая,"пассажирский, грузовой",6к2,Двор,"наземный паркинг, гостевой паркинг",есть,https://msk.etagi.com/realty/12489324/,raw,1.04,geo_recomputed,20.7,6.24,0.47,0.39,1.17,0.69
all,13200000.0,38.9,2.0,7.0,12.0,"Москва, ул. Ангарская, 49к4",55.883035,37.525495,Яхромская,17.0,6.0,косметический ремонт,блоки железобетонные,,,не угловая,,49к4,Двор,наземный паркинг,нет,https://msk.etagi.com/realty/12489604/,raw,1.41,geo_recomputed,15.6,1.9,0.21,0.07,0.14,0.44
all,,,,,,,,,,,,,,,,,,,,,,https://msk.etagi.com/realty/12489672/,missing,,missing,,,,,,
all,26990000.0,54.3,2.0,12.0,16.0,"Москва, ул. Академика Анохина, 12к4",55.667249,37.467078,Юго-Западная,13.0,9.3,,панельные,1982.0,2.7,не угловая,"пассажирский, грузовой",12к4,Двор,"наземный паркинг, парковка во дворе",нет,https://msk.etagi.com/realty/12490011/,raw,1.09,geo_recomputed,13.26,2.13,0.23,0.1,0.41,0.3
all,26800000.0,79.0,4.0,23.0,25.0,"Москва, ул. Лавриненко, 11к2",55.702191,37.949931,Некрасовка,18.0,14.0,евроремонт,монолитно-каркасные,2020.0,,не угловая,"пассажирский, грузовой",11к2,Двор,наземный паркинг,нет,https://msk.etagi.com/realty/12490612/,raw,1.48,geo_recomputed,21.66,7.14,0.49,0.17,0.06,0.25
all,50000000.0,65.1,2.0,11.0,16.0,"Москва, ул. Виктора Маслова, 2 (4 км до центра)",55.719434,37.656874,Дубровка,15.0,12.3,,монолитные,2023.0,2.7,не угловая,,2,Двор,подземный паркинг,нет,https://msk.etagi.com/realty/12490689/,raw,1.22,geo_recomputed,4.47,11.13,0.41,0.1,0.43,0.42
all,27500000.0,59.0,2.0,8.0,11.0,"Москва, ул. Ленинградский проспект, 71кб",55.804162,37.515146,Сокол,2.0,10.0,косметический ремонт,кирпичные,1953.0,2.64,не угловая,пассажирский,71кб,Двор,"наземный паркинг, гостевой паркинг",есть,https://msk.etagi.com/realty/12490817/,raw,0.16,geo_recomputed,8.54,7.9,0.19,0.08,0.13,0.07
all,21200000.0,38.0,2.0,7.0,8.0,"Ozon, 44 к2, 2-й Грайвороновский проезд, Рязанский район, Москва, Центральный федеральный округ, 109518, Россия",55.726487,37.747693,Стахановская,10.0,8.0,,монолитные,,,не угловая,,44к2,Детская площадка,,нет,https://msk.etagi.com/realty/12491068/,geo,0.86,geo_recomputed,8.75,5.77,0.24,0.32,0.39,0.24
all,14000000.0,37.6,1.0,2.0,14.0,"Москва, ул. Привольная, 77",,,Жулебино,15.0,7.4,косметический ремонт,панельные,1997.0,2.64,не угловая,"пассажирский, грузовой",77,Двор,"наземный паркинг, гостевой паркинг",есть,https://msk.etagi.com/realty/12491095/,raw,,raw,,,,,,
all,16600000.0,31.8,1.0,3.0,9.0,"Москва, ул. Днепропетровская, 7к1",55.622726,37.597612,Южная,9.0,9.0,косметический ремонт,панельные,1970.0,2.64,не угловая,"пассажирский, грузовой",7к1,Двор,"наземный паркинг, гостевой паркинг",нет,https://msk.etagi.com/realty/12479614/,raw,0.72,geo_recomputed,14.44,4.87,0.32,0.41,0.33,0.25
all,19800000.0,44.0,2.0,9.0,9.0,"Москва, ул. Изумрудная, 40",55.876289,37.691055,Бабушкинская,21.0,9.0,евроремонт,блочные,1971.0,2.64,не угловая,"пассажирский, грузовой",40,Двор,,нет,https://msk.etagi.com/realty/12479655/,raw,1.78,geo_recomputed,14.58,1.95,0.38,0.19,0.43,0.34
all,14800000.0,61.0,3.0,1.0,6.0,"Москва, ул. Домодедовская, 4",55.616005,37.703218,Орехово,7.0,9.0,чистовая отделка,монолитные,2020.0,2.64,не угловая,пассажирский,4,Двор,,нет,https://msk.etagi.com/realty/12479786/,raw,0.62,geo_recomputed,16.11,3.14,0.36,0.14,0.41,0.28
all,20200000.0,53.0,2.0,14.0,14.0,"Москва, ул. Михалковская, 28 (14 км до центра)",55.840422,37.525791,Коптево,4.0,10.0,косметический ремонт,железобетонные,,,не угловая,пассажирский,28,Двор,наземный паркинг,нет,https://msk.etagi.com/realty/12479861/,raw,0.37,geo_recomputed,11.3,5.84,0.15,0.34,0.43,0.21
all,18490000.0,54.0,2.0,4.0,16.0,"Москва, ул. Харьковский проезд, 11к4",55.589351,37.640704,Красный строитель,19.0,9.0,косметический ремонт,блоки железобетонные,,,не угловая,,11к4,Детская площадка,,нет,https://msk.etagi.com/realty/12479871/,raw,1.61,geo_recomputed,18.18,1.75,0.17,0.15,0.75,0.32
all,43990000.0,44.4,2.0,1.0,9.0,"Москва, ул. Ленинградский проспект, 14к1 (4 км до центра)",55.781185,37.578541,Белорусская,6.0,10.0,евроремонт,кирпичные,,,не угловая,,14к1,Двор,наземный паркинг,нет,https://msk.etagi.com/realty/12481983/,raw,0.47,geo_recomputed,3.97,12.3,0.12,0.16,0.11,0.26
all,28000000.0,48.0,1.0,5.0,14.0,"Москва, ул. Мичуринский Проспект Олимпийская Деревня, 10к1 (20 км до центра)",55.672642,37.466817,Озёрная,14.0,13.0,евроремонт,монолитные,2018.0,3.1,не угловая,пассажирский,10к1,Двор,"наземный паркинг, подземный паркинг, гостевой паркинг",есть,https://msk.etagi.com/realty/12482651/,raw,1.13,geo_recomputed,12.85,2.44,0.27,0.08,0.23,0.34
all,24500000.0,66.0,3.0,14.0,15.0,"Москва, ул. Ленинградское шоссе, 228к6 (24 км до центра)",55.933242,37.386741,Молжаниново,13.0,14.0,косметический ремонт,панельные,2023.0,3.24,не угловая,,228к6,Двор,наземный паркинг,нет,https://msk.etagi.com/realty/12482878/,raw,1.07,geo_recomputed,24.69,6.76,1.09,2.18,2.62,0.84
all,50300000.0,125.0,5.0,28.0,33.0,"Москва, ул. 1-й Нагатинский проезд, 11к3 (9 км до центра)",55.676585,37.634092,Нагатинская,12.0,18.0,,монолитные,2011.0,2.64,не угловая,"пассажирский, грузовой",11к3,Двор,наземный паркинг,есть,https://msk.etagi.com/realty/12482928/,raw,1.03,geo_recomputed,8.49,11.15,0.16,0.3,0.02,0.37
all,26500000.0,66.3,3.0,3.0,6.0,"Москва, ул. шоссе Энтузиастов, 48/1",55.758691,37.757063,Шоссе Энтузиастов,4.0,24.5,евроремонт,кирпичные,1940.0,3.3,не угловая,пассажирский,48/1,Двор,"наземный паркинг, гостевой паркинг",есть,https://msk.etagi.com/realty/12483285/,raw,0.34,geo_recomputed,8.88,5.35,1.17,0.99,0.83,0.09
all,11500000.0,44.0,1.0,6.0,19.0,"Москва, ул. Синявинская, 11к9",55.94626,37.346075,Подрезково,10.0,11.0,косметический ремонт,монолитные,2013.0,2.78,не угловая,"пассажирский, грузовой",11к9,Двор,наземный паркинг,нет,https://msk.etagi.com/realty/12483458/,raw,0.87,geo_recomputed,27.36,9.27,0.16,0.06,0.37,0.34
all,14200000.0,37.0,1.0,2.0,14.0,"Москва, ул. Уржумская, 3к1",55.852597,37.662201,Свиблово,8.0,7.0,косметический ремонт,блочные,1970.0,2.64,не угловая,"пассажирский, грузовой",3к1,Двор,"наземный паркинг, гостевой паркинг",есть,https://msk.etagi.com/realty/12469630/,raw,0.64,geo_recomputed,11.54,4.76,0.21,0.14,0.05,0.22
all,22600000.0,66.0,2.0,6.0,25.0,"Москва, ул. Валдайский проезд, 10к1 (16 км до центра)",55.867071,37.467365,Беломорская,7.0,10.0,косметический ремонт,монолитный железобетонный каркас,,,не угловая,,10к1,Двор,наземный паркинг,нет,https://msk.etagi.com/realty/12471535/,raw,0.6,geo_recomputed,15.78,1.76,0.14,0.12,0.21,0.11
all,18750000.0,62.5,3.0,9.0,9.0,"Москва, ул. Реутовская, 22к2",55.731972,37.839187,Новогиреево,23.0,7.0,евроремонт,панельные,,2.64,не угловая,,22к2,Двор,наземный паркинг,нет,https://msk.etagi.com/realty/12472381/,raw,1.9,geo_recomputed,14.17,0.08,0.21,0.34,0.41,0.53
all,12500000.0,25.5,0.0,16.0,16.0,"Москва, ул. Дмитровское шоссе, 107ак5 (14 км до центра)",55.877521,37.538889,Яхромская,5.0,10.0,,монолитные,2019.0,,не угловая,"пассажирский, грузовой",107ак5,Двор,"наземный паркинг, гостевой паркинг, подземный паркинг",есть,https://msk.etagi.com/realty/12473451/,raw,0.43,geo_recomputed,14.74,2.9,0.25,0.05,0.11,0.25
all,12200000.0,39.0,1.0,11.0,12.0,"Москва, ул. Бирюлёвская, 55к1",55.582981,37.675307,Орехово,42.0,9.0,евроремонт,панельные,1983.0,2.64,не угловая,пассажирский,55к1,Двор,"наземный паркинг, гостевой паркинг",есть,https://msk.etagi.com/realty/12473786/,raw,3.53,geo_recomputed,19.19,1.08,0.17,0.08,0.4,0.12
all,20500000.0,46.6,2.0,9.0,26.0,"Москва, ул. Кронштадтский бульвар, 9к1",55.841625,37.489706,Водный стадион,4.0,21.0,черновая отделка,монолитно-каркасные,,2.8,не угловая,"пассажирский, грузовой",9к1,Двор,,нет,https://msk.etagi.com/realty/12473810/,raw,0.32,geo_recomputed,12.68,4.84,0.47,0.29,0.36,0.16
all,16800000.0,44.0,2.0,8.0,9.0,"Москва, ул. Исаковского, 16к1",55.812494,37.409684,Строгино,13.0,6.0,косметический ремонт,панельные,1979.0,2.64,не угловая,"пассажирский, грузовой",16к1,Двор,,нет,https://msk.etagi.com/realty/12473945/,raw,1.07,geo_recomputed,14.52,1.23,0.22,0.17,0.17,0.5
all,7100000.0,18.0,0.0,11.0,16.0,"Москва, ул. Ярославское шоссе, 116к2",55.867041,37.709596,Бабушкинская,34.0,5.0,косметический ремонт,монолитные,1980.0,2.64,не угловая,"пассажирский, грузовой",116к2,Двор,наземный паркинг,нет,https://msk.etagi.com/realty/12474427/,raw,2.85,geo_recomputed,14.06,1.94,0.42,0.24,0.6,0.1
all,43000000.0,88.0,3.0,20.0,20.0,"Москва, ул. Нововладыкинский проезд, 1к3 (11 км до центра)",55.850626,37.576753,Окружная,5.0,9.0,косметический ремонт,кирпичные,,,не угловая,,1к3,Двор,,нет,https://msk.etagi.com/realty/12474521/,raw,0.4,geo_recomputed,11.21,6.25,0.69,0.19,0.01,0.37
all,8350000.0,15.4,1.0,5.0,6.0,"Москва, ул. Нижняя Первомайская, 68/77",55.791035,37.818948,Первомайская,15.0,3.0,евроремонт,кирпич красный,,,не угловая,,68/77,Двор,наземный паркинг,нет,https://msk.etagi.com/realty/12474672/,raw,1.28,geo_recomputed,13.43,1.38,0.4,0.46,0.09,0.43
all,21800000.0,34.3,1.0,13.0,15.0,"Москва, ул. Селезнёвская, 30к3",55.780335,37.611051,Достоевская,3.0,10.0,чистовая отделка,кирпич красный,1973.0,,не угловая,,30к3,Парковка,наземный паркинг,нет,https://msk.etagi.com/realty/12474761/,raw,0.23,geo_recomputed,3.14,13.16,0.21,0.15,0.05,0.15
all,27200000.0,49.0,2.0,2.0,8.0,"Москва, ул. Трофимова, 4",55.702947,37.662623,Автозаводская,5.0,6.0,,кирпичные,1959.0,2.64,не угловая,"пассажирский, грузовой",4,Двор,"наземный паркинг, гостевой паркинг",есть,https://msk.etagi.com/realty/12465158/,raw,0.38,geo_recomputed,6.22,10.51,0.48,0.11,0.09,0.14
all,14900000.0,44.0,1.0,7.0,12.0,"Москва, ул. Лескова, 23",55.892764,37.619513,Бибирево,17.0,6.0,,панельные,1978.0,2.64,не угловая,"пассажирский, грузовой",23,Двор,"наземный паркинг, гостевой паркинг",нет,https://msk.etagi.com/realty/12465742/,raw,1.43,geo_recomputed,15.63,0.9,0.13,0.28,0.42,0.2
all,19300000.0,47.7,2.0,7.0,9.0,"Москва, ул. Якорная, 9 (8 км до центра)",55.685158,37.68641,Нагатинский Затон,13.0,9.0,косметический ремонт,блочные,1970.0,2.7,не угловая,пассажирский,9,Двор,наземный паркинг,есть,https://msk.etagi.com/realty/12465830/,raw,1.08,geo_recomputed,8.67,9.01,0.18,0.3,0.54,0.06
all,34000000.0,64.9,2.0,5.0,12.0,"Москва, ул. Барклая, 6ак1 (7 км до центра)",55.739782,37.506433,Парк Победы,7.0,19.2,чистовая отделка,монолитные,,,не угловая,,6ак1,Двор,подземный паркинг,нет,https://msk.etagi.com/realty/12466033/,raw,0.62,geo_recomputed,6.97,7.91,0.29,0.28,0.22,0.27
all,20000000.0,43.0,2.0,1.0,5.0,"Москва, ул. Мосфильмовская, 27 (9 км до центра)",55.713131,37.51308,Ломоносовский проспект,12.0,6.0,евроремонт,кирпичные,,2.7,не угловая,,27,Детская площадка,,нет,https://msk.etagi.com/realty/12466067/,raw,1.03,geo_recomputed,7.75,6.76,0.15,0.24,0.09,1.26
all,13000000.0,38.0,1.0,14.0,16.0,"Москва, ул. Ярославское шоссе, 120к3 (14 км до центра)",55.869854,37.713809,Бабушкинская,37.0,6.0,косметический ремонт,железобетонные,1980.0,,не угловая,"пассажирский, грузовой",120к3,Двор,наземный паркинг,нет,https://msk.etagi.com/realty/12466168/,raw,3.09,geo_recomputed,14.45,1.53,0.59,0.16,0.36,0.28
all,36000000.0,54.7,2.0,15.0,22.0,"Москва, ул. Крылатские Холмы, 24",55.762931,37.415865,Крылатское,10.0,12.0,,панельные,1989.0,2.64,не угловая,"пассажирский, грузовой",24,Двор,парковка во дворе,нет,https://msk.etagi.com/realty/12466602/,raw,0.83,geo_recomputed,12.55,2.91,0.17,0.3,0.27,0.37
all,17999999.0,37.0,1.0,13.0,14.0,"Москва, ул. Гиляровского, 54",55.786333,37.633347,Проспект Мира,6.0,8.0,требует ремонта / частичный ремонт,блоки железобетонные,,,не угловая,,54,Детская площадка,,нет,https://msk.etagi.com/realty/12466840/,raw,0.5,geo_recomputed,3.95,11.8,0.12,0.13,0.05,0.2
all,14300000.0,42.0,2.0,1.0,9.0,"Москва, ул. Староватутинский проезд, 3 (11 км до центра)",55.872991,37.674005,Бабушкинская,8.0,6.0,косметический ремонт,кирпичные,1970.0,2.64,не угловая,пассажирский,3,Двор,наземный паркинг,есть,https://msk.etagi.com/realty/12466914/,raw,0.66,geo_recomputed,13.92,2.45,0.25,0.21,0.51,0.25
all,20700000.0,42.0,2.0,4.0,19.0,"Москва, ул. Ленинский проспект, 122",55.666142,37.511356,Новаторская,9.0,9.0,косметический ремонт,панельные,1967.0,2.5,не угловая,"пассажирский, грузовой, пассажирский и грузовой",122,Двор,"наземный паркинг, парковка во дворе",нет,https://msk.etagi.com/realty/12467154/,raw,0.75,geo_recomputed,11.59,4.37,0.19,0.26,0.3,0.26
all,85000000.0,130.0,4.0,4.0,25.0,"Москва, ул. Береговой проезд, 1к",55.756964,37.513332,Шелепиха,9.0,20.0,,кирпич красный,,,не угловая,,1к,Парковка,наземный паркинг,нет,https://msk.etagi.com/realty/12467197/,raw,0.77,geo_recomputed,6.42,9.01,0.34,0.17,0.26,0.28
all,69900000.0,123.0,3.0,11.0,21.0,"Москва, ул. проспект Вернадского, 92к1",55.654838,37.476258,Юго-Западная,12.0,16.5,,монолитные,2007.0,3.0,не угловая,"грузовой, пассажирский, пассажирский и грузовой",92к1,Двор,"наземный паркинг, подземный паркинг, парковка во дворе, гостевой паркинг",нет,https://msk.etagi.com/realty/12181606/,raw,1.01,geo_recomputed,13.91,1.84,0.41,0.48,0.41,0.27
all,33000000.0,75.8,2.0,20.0,25.0,"Москва, ул. Летниковская, 6к1 (4 км до центра)",55.727553,37.642491,Павелецкая,4.0,17.0,черновая отделка,монолитно-кирпичный,2025.0,3.3,не угловая,,6к1,Двор,подземный паркинг,нет,https://msk.etagi.com/realty/12457259/,raw,0.34,geo_recomputed,3.22,12.21,0.57,0.51,0.27,0.26
all,20000000.0,60.0,3.0,6.0,9.0,"Москва, ул. Широкая, 17к1 (15 км до центра)",55.888043,37.667806,Медведково,5.0,6.0,косметический ремонт,панельные,1969.0,,не угловая,,17к1,Двор,наземный паркинг,нет,https://msk.etagi.com/realty/12457342/,raw,0.39,geo_recomputed,15.45,0.8,0.25,0.18,0.27,0.08
all,11555555.0,35.1,1.0,12.0,12.0,"Москва, ул. Бирюлёвская, 58к1 (16 км до центра)",55.581383,37.670429,Красный строитель,43.0,7.0,косметический ремонт,панельные,1976.0,2.48,не угловая,"пассажирский, грузовой",58к1,Двор,наземный паркинг,есть,https://msk.etagi.com/realty/12457518/,raw,3.59,geo_recomputed,19.3,1.02,0.43,0.22,0.24,0.16
all,,,,,,,,,,,,,,,,,,,,,,https://msk.etagi.com/realty/12457536/,missing,,missing,,,,,,
all,49950000.0,83.3,4.0,16.0,42.0,"Москва, ул. Лобачевского, 120к1 (11 км до центра)",55.697088,37.470657,Аминьевская,4.0,20.0,,монолитные,2022.0,3.1,не угловая,"грузовой, пассажирский",120к1,Двор,"подземный паркинг, гостевой паркинг, наземный паркинг",нет,https://msk.etagi.com/realty/12457556/,raw,0.31,geo_recomputed,10.95,3.65,0.81,0.3,0.7,0.5
all,29800000.0,59.7,2.0,6.0,14.0,"Москва, ул. набережная Марка Шагала, 1к2",55.699558,37.63111,ЗИЛ,13.0,16.7,черновая отделка,,,,не угловая,,1к2,Двор,подземный паркинг,нет,https://msk.etagi.com/realty/12457601/,raw,1.05,geo_recomputed,5.93,12.46,0.51,0.11,0.35,0.42
all,19999999.0,36.2,1.0,2.0,8.0,"Москва, ул. Академика Королёва, вл13 (7 км до центра)",55.820961,37.618893,Останкино,12.0,12.0,косметический ремонт,монолитные,,,не угловая,,вл13,Двор,наземный паркинг,нет,https://msk.etagi.com/realty/12457639/,raw,1.04,geo_recomputed,7.65,8.63,0.43,0.28,0.42,0.04
all,27000000.0,81.6,3.0,5.0,17.0,"ПИК-комфорт, Рабочая улица, Барыши, Щербинка, Москва, Центральный федеральный округ, 142171, Россия",55.518301,37.5728,Щербинка,14.0,22.5,евроремонт,блоки железобетонные,2023.0,,не угловая,,1.1,Детская площадка,,нет,https://msk.etagi.com/realty/12458033/,geo,1.17,geo_recomputed,26.15,6.58,0.14,0.12,1.35,0.39
all,12700000.0,32.7,1.0,4.0,5.0,"Москва, ул. Маршала Неделина, 28 (24 км до центра)",55.72595,37.415541,Рабочий Посёлок,1.0,7.5,косметический ремонт,кирпичные,1952.0,3.0,не угловая,"пассажирский, грузовой",28,Двор,наземный паркинг,есть,https://msk.etagi.com/realty/12458505/,raw,0.11,geo_recomputed,12.86,2.16,0.33,0.35,0.85,0.09
all,6850000.0,20.1,0.0,2.0,10.0,"Москва, ул. Подъёмная, 14с37 (6 км до центра)",55.742448,37.707521,Калитники,12.0,4.0,евроремонт,монолитные,,3.0,не угловая,пассажирский,14с37,Двор,"гостевой паркинг, наземный паркинг, парковка во дворе",нет,https://msk.etagi.com/realty/12460742/,raw,1.0,geo_recomputed,5.85,8.4,0.39,0.53,0.21,0.56
all,19000000.0,87.0,3.0,2.0,19.0,"Москва, ул. Синявинская, 11к4",55.947303,37.344889,Подрезково,11.0,8.0,евроремонт,панельные,2012.0,2.78,не угловая,"пассажирский, грузовой",11к4,Двор,"наземный паркинг, гостевой паркинг",есть,https://msk.etagi.com/realty/12451190/,raw,0.89,geo_recomputed,27.5,9.41,0.29,0.09,0.45,0.28
all,8700000.0,26.2,0.0,11.0,20.0,"Москва, ул. Новодачная, 67/68",55.922651,37.534065,Новодачная,5.0,5.0,без отделки,монолитный железобетонный каркас,,,не угловая,,67/68,Парковка,"наземный паркинг, подземный паркинг",нет,https://msk.etagi.com/realty/12451229/,raw,0.43,geo_recomputed,19.63,1.72,0.69,0.47,0.49,0.47
all,25650000.0,56.9,2.0,4.0,20.0,"Москва, ул. Михайлова, 31а",55.725133,37.775263,Плющево,7.0,10.0,евроремонт,монолитные,2019.0,2.64,не угловая,"пассажирский, грузовой",31а,Двор,"наземный паркинг, парковка во дворе, подземный паркинг, гостевой паркинг",есть,https://msk.etagi.com/realty/12451417/,raw,0.61,geo_recomputed,10.44,4.03,0.31,0.34,0.1,0.35
all,16900000.0,44.5,2.0,14.0,14.0,"Москва, ул. Керченская, 1к2 (11 км до центра)",55.651582,37.582305,Зюзино,7.0,5.9,требует ремонта / частичный ремонт,блочные,1976.0,2.64,не угловая,"пассажирский, грузовой",1к2,Двор,наземный паркинг,есть,https://msk.etagi.com/realty/12451598/,raw,0.57,geo_recomputed,11.38,7.21,0.34,0.27,0.25,0.33
all,25250000.0,49.3,2.0,5.0,14.0,"Москва, ул. проспект Вернадского, 61к2 (12 км до центра)",55.671605,37.504088,Проспект Вернадского,7.0,8.3,косметический ремонт,монолитные,,3.0,не угловая,,61к2,Двор,наземный паркинг,нет,https://msk.etagi.com/realty/12451944/,raw,0.55,geo_recomputed,11.36,4.33,0.12,0.32,0.24,0.32
all,12400000.0,32.6,1.0,4.0,5.0,"Москва, ул. Михайлова, 19",55.727648,37.767331,Стахановская,6.0,6.0,евроремонт,монолитные,,2.7,угловая,,19,Двор,наземный паркинг,нет,https://msk.etagi.com/realty/12452103/,raw,0.53,geo_recomputed,9.88,4.54,0.17,0.29,0.47,0.16
all,14300000.0,31.3,1.0,7.0,32.0,"Москва, ул. Донецкая, 30к1",55.645476,37.707215,Курьяново,7.0,9.0,без отделки,монолитные,2019.0,2.64,не угловая,"пассажирский, грузовой",30к1,Двор,"наземный паркинг, подземный паркинг",есть,https://msk.etagi.com/realty/12452358/,raw,0.59,geo_recomputed,13.18,5.49,0.7,0.34,0.44,0.24
all,14400000.0,38.8,1.0,6.0,14.0,"Москва, ул. Нарвская, 11к3",55.83299,37.501582,Балтийская,10.0,9.7,косметический ремонт,блочные,,2.64,не угловая,,11к3,Детская площадка,,нет,https://msk.etagi.com/realty/12452470/,raw,0.87,geo_recomputed,11.47,5.99,0.08,0.16,0.53,0.17
all,25500000.0,42.0,2.0,1.0,25.0,"Москва, ул. Гришина, 16 (13 км до центра)",55.722593,37.418191,Рабочий Посёлок,6.0,10.0,,кирпичные,,3.0,не угловая,грузовой,16,Двор,"подземный паркинг, наземный паркинг",нет,https://msk.etagi.com/realty/12452576/,raw,0.51,geo_recomputed,12.79,2.21,0.24,0.04,0.85,0.36
all,23300000.0,54.3,2.0,13.0,17.0,"Москва, ул. Мичуринский проспект, 25к1",55.696565,37.502768,Раменки,2.0,9.0,косметический ремонт,панельные,,,не угловая,"грузовой, пассажирский",25к1,Парковка,наземный паркинг,нет,https://msk.etagi.com/realty/12453987/,raw,0.15,geo_recomputed,9.39,5.56,0.29,0.12,0.17,0.18
all,122000000.0,102.0,3.0,2.0,10.0,"Москва, ул. Братьев Фонченко, 1к6",55.732053,37.518192,Парк Победы,5.0,15.0,евроремонт,монолитные,2025.0,,не угловая,,1к6,Двор,подземный паркинг,нет,https://msk.etagi.com/realty/12454391/,raw,0.41,geo_recomputed,6.5,8.01,0.33,0.36,0.19,0.47
all,15500000.0,35.7,2.0,1.0,9.0,"Москва, ул. Большая Филёвская, 53к2",55.739215,37.46909,Пионерская,5.0,7.6,евроремонт,блочные,1965.0,2.5,не угловая,"пассажирский, грузовой",53к2,Двор,наземный паркинг,нет,https://msk.etagi.com/realty/12439404/,raw,0.38,geo_recomputed,9.28,5.8,0.54,0.09,0.51,0.19
all,22500000.0,65.0,3.0,4.0,9.0,"Москва, ул. Севастопольский проспект, 51к2 (9 км до центра)",55.667203,37.583688,Зюзино,17.0,7.0,,панельные,1970.0,2.64,не угловая,пассажирский,51к2,Двор,наземный паркинг,есть,https://msk.etagi.com/realty/12441445/,raw,1.43,geo_recomputed,9.66,8.24,0.32,0.12,0.17,0.41
all,20600000.0,47.0,1.0,24.0,25.0,"Москва, ул. Боровское шоссе, 2к5 (25 км до центра)",55.661831,37.420024,Говорово,5.0,10.0,косметический ремонт,панельные,2018.0,2.64,не угловая,,2к5,Двор,"парковка во дворе, наземный паркинг, гостевой паркинг",есть,https://msk.etagi.com/realty/12441621/,raw,0.38,geo_recomputed,15.85,0.71,0.35,0.11,1.09,0.21
all,28100000.0,78.0,3.0,2.0,17.0,"Москва, ул. Нахимовский проспект, 33/2 (10 км до центра)",55.672255,37.577247,Профсоюзная,13.0,13.0,требует ремонта / частичный ремонт,монолитные,,2.7,не угловая,,33/2,Двор,наземный паркинг,нет,https://msk.etagi.com/realty/12442167/,raw,1.1,geo_recomputed,9.21,8.21,0.19,0.27,0.34,0.19
all,15800000.0,44.0,1.0,7.0,13.0,"Москва, ул. Перовская, 66к7 (19 км до центра)",55.743461,37.804224,Кусково,8.0,10.0,косметический ремонт,панельные,,2.64,не угловая,"пассажирский, грузовой",66к7,Двор,наземный паркинг,нет,https://msk.etagi.com/realty/12442353/,raw,0.7,geo_recomputed,11.84,2.35,0.07,0.05,0.64,0.23
all,17000000.0,27.6,4.0,3.0,30.0,"Москва, ул. Лётная",55.819702,37.420823,Спартак,11.0,5.1,черновая отделка,монолитные,,3.0,не угловая,"пассажирский, грузовой",к3,Двор,подземный паркинг,нет,https://msk.etagi.com/realty/12442387/,raw,0.91,geo_recomputed,14.31,1.78,0.59,0.56,0.63,0.73
all,24500000.0,50.2,2.0,5.0,17.0,"Москва, ул. Большая Черёмушкинская, 26к4 (8 км до центра)",55.681407,37.584137,Академическая,11.0,8.0,косметический ремонт,панельные,1993.0,,не угловая,"пассажирский, грузовой",26к4,Двор,наземный паркинг,нет,https://msk.etagi.com/realty/12442606/,raw,0.94,geo_recomputed,8.11,9.13,0.55,0.18,0.11,0.08
all,4500000.0,57.5,2.0,1.0,5.0,"Москва, ул. Можайское шоссе, 11",55.720814,37.435951,Давыдково,14.0,7.2,косметический ремонт,кирпичные,,2.5,не угловая,"пассажирский, грузовой",11,Двор,,нет,https://msk.etagi.com/realty/12442706/,raw,1.16,geo_recomputed,11.78,3.11,0.34,0.42,0.09,0.23
all,15900000.0,38.9,2.0,6.0,12.0,"Москва, ул. Новая Дорога, 3 (5 км до центра)",55.771423,37.701582,Лефортово,9.0,6.3,косметический ремонт,блочные,,2.64,не угловая,,3,Двор,,нет,https://msk.etagi.com/realty/12442708/,raw,0.78,geo_recomputed,5.79,8.86,0.41,0.16,0.21,0.81
all,20900000.0,61.7,1.0,4.0,7.0,"Москва, ул. Новокуркинское шоссе, 25к1",55.898639,37.397135,Молжаниново,36.0,13.0,,кирпич красный,,,не угловая,,25к1,Детская площадка,,нет,https://msk.etagi.com/realty/12443008/,raw,3.01,geo_recomputed,21.24,3.08,0.47,0.1,0.6,0.07
all,24500000.0,74.0,3.0,11.0,25.0,"Москва, ул. Вертолётчиков, 1",55.700065,37.939735,Некрасовка,11.0,14.0,евроремонт,блочные,2017.0,2.7,не угловая,"пассажирский, грузовой",1,Двор,"наземный паркинг, гостевой паркинг",есть,https://msk.etagi.com/realty/12443311/,raw,0.89,geo_recomputed,21.11,6.56,0.25,0.13,0.48,0.55
all,12600000.0,77.1,3.0,4.0,17.0,"Москва, ул. Новочеркасский бульвар, 55 (15 км до центра)",55.648819,37.742097,Марьино,1.0,7.0,требует ремонта / частичный ремонт,монолитные,1990.0,2.5,не угловая,"пассажирский, грузовой",55,Двор,наземный паркинг,нет,https://msk.etagi.com/realty/12426366/,raw,0.12,geo_recomputed,13.96,4.23,0.36,0.12,0.19,0.08
all,12200000.0,22.9,0.0,15.0,24.0,"Москва, ул. Производственная, 19к1",55.645969,37.380687,Боровское шоссе,8.0,6.1,черновая отделка,монолитный железобетонный каркас,2025.0,,не угловая,,19к1,Детская площадка,,нет,https://msk.etagi.com/realty/12428583/,raw,0.67,geo_recomputed,18.87,3.72,0.38,0.47,0.78,0.66
all,14350000.0,35.0,1.0,1.0,12.0,"Москва, ул. Мироновская, 10",55.785377,37.734281,Измайлово,8.0,10.0,евроремонт,панельные,1969.0,,не угловая,,10,Детская площадка,,нет,https://msk.etagi.com/realty/12433013/,raw,0.64,geo_recomputed,8.29,6.72,0.4,0.05,0.11,0.14
all,120000000.0,146.0,4.0,3.0,14.0,"Москва, ул. проспект Вернадского, 94к5",55.652197,37.473042,Тропарево,8.0,15.6,,монолитные,2010.0,2.64,не угловая,"пассажирский, грузовой",94к5,Двор,"наземный паркинг, гостевой паркинг",нет,https://msk.etagi.com/realty/12433163/,raw,0.7,geo_recomputed,14.26,1.51,0.06,0.28,0.51,0.09
all,17200000.0,52.2,2.0,8.0,16.0,"Москва, ул. Лескова, 17а (13 км до центра)",55.895353,37.614267,Бибирево,17.0,8.2,требует ремонта / частичный ремонт,панельные,1982.0,2.64,не угловая,пассажирский,17а,Двор,наземный паркинг,есть,https://msk.etagi.com/realty/12433618/,raw,1.46,geo_recomputed,15.92,0.75,0.1,0.27,0.42,0.12
all,18300000.0,44.2,2.0,1.0,5.0,"Москва, ул. проезд Донелайтиса, 26 (16 км до центра)",55.845021,37.42121,Сходненская,16.0,6.0,,кирпичные,,,не угловая,,26,Детская площадка,,нет,https://msk.etagi.com/realty/12433811/,raw,1.31,geo_recomputed,15.94,1.7,0.29,0.19,0.17,0.25
all,12300000.0,37.9,1.0,1.0,14.0,"Москва, ул. Онежская, 30",55.857351,37.51299,Моссельмаш,12.0,9.7,косметический ремонт,монолитные,1971.0,,,,,,,,https://msk.etagi.com/realty/12433831/,raw,1.0,geo_recomputed,13.34,3.8,0.47,0.44,0.33,0.24
all,39190000.0,67.5,2.0,30.0,43.0,"Москва, ул. Шелепихинская набережная, 34к6 (7 км до центра)",55.763954,37.509792,Шелепиха,15.0,18.6,без отделки,монолитные,,3.2,не угловая,,34к6,Двор,подземный паркинг,есть,https://msk.etagi.com/realty/12434168/,raw,1.22,geo_recomputed,6.75,8.81,0.13,0.41,0.84,0.67
all,7800000.0,15.5,0.0,1.0,9.0,"Москва, ул. Дубининская, 65/8",55.716453,37.634317,Тульская,13.0,10.0,,блочные+кирпич,,,не угловая,,65/8,Детская площадка,,нет,https://msk.etagi.com/realty/12436596/,raw,1.06,geo_recomputed,4.14,12.46,0.52,0.28,0.24,0.16
all,20500000.0,59.4,2.0,4.0,24.0,"Москва, ул. Щёлковское шоссе, 92ак1 (14 км до центра)",55.810921,37.825101,Щелковская,20.0,10.0,евроремонт,монолитные,,,не угловая,,92ак1,Детская площадка,,нет,https://msk.etagi.com/realty/12436636/,raw,1.68,geo_recomputed,14.64,0.87,0.31,0.16,0.64,0.23
all,6600000.0,10.7,0.0,4.0,4.0,"Москва, ул. Клинская, 8с1",55.868536,37.497063,Грачёвская,9.0,10.0,косметический ремонт,кирпичные,,4.0,не угловая,,8с1,Двор,парковка во дворе,нет,https://msk.etagi.com/realty/12437007/,raw,0.76,geo_recomputed,14.91,2.25,0.34,0.17,0.3,0.06
all,63000000.0,114.5,4.0,26.0,31.0,"Москва, ул. Карамышевская набережная, 2а",55.769135,37.494521,Народное Ополчение,11.0,46.9,,монолитные,2009.0,2.64,не угловая,,2а,Двор,"гостевой паркинг, парковка во дворе, подземный паркинг",есть,https://msk.etagi.com/realty/12425923/,raw,0.96,geo_recomputed,7.81,7.8,0.24,0.26,0.53,0.62
all,30000000.0,53.0,2.0,14.0,22.0,"Москва, ул. Тюменский проезд, 3к3 (10 км до центра)",55.811847,37.741603,Бульвар Рокоссовского,8.0,24.2,евроремонт,монолитные,,3.0,не угловая,,3к3,Двор,наземный паркинг,нет,https://msk.etagi.com/realty/12426039/,raw,0.66,geo_recomputed,10.3,5.12,0.63,0.14,0.61,0.35
all,8900000.0,18.8,0.0,8.0,10.0,"Москва, ул. Рязанский проспект, 86/1с1",55.708029,37.83041,Юго-Восточная,8.0,6.0,,панельные,1978.0,2.5,не угловая,,86/1с1,Двор,наземный паркинг,нет,https://msk.etagi.com/realty/12426244/,raw,0.69,geo_recomputed,14.32,0.27,0.42,0.41,0.53,0.1
all,21500000.0,61.1,2.0,14.0,27.0,"Москва, ул. Варшавское шоссе, 170ек1",55.58264,37.582475,Лесопарковая,4.0,12.0,евроремонт,монолитные,,2.64,не угловая,пассажирский,170ек1,Двор,гостевой паркинг,нет,https://msk.etagi.com/realty/12427172/,raw,0.31,geo_recomputed,18.97,0.39,0.95,0.61,0.14,0.44
all,20000000.0,40.2,1.0,4.0,17.0,"Москва, ул. Краснобогатырская, 40 (8 км до центра)",55.808538,37.701592,Преображенская площадь,19.0,13.0,евроремонт,монолитные,,,не угловая,,40,Двор,"подземный паркинг, гостевой паркинг, наземный паркинг",нет,https://msk.etagi.com/realty/12427315/,raw,1.55,geo_recomputed,8.26,7.09,0.48,0.12,0.4,0.2
all,14400000.0,35.0,1.0,5.0,12.0,"Москва, ул. Утренняя, 10к1 (10 км до центра)",55.747459,37.79101,Перово,7.0,10.0,косметический ремонт,железобетонные,,2.6,не угловая,,10к1,Двор,наземный паркинг,нет,https://msk.etagi.com/realty/12427450/,raw,0.58,geo_recomputed,10.99,3.19,0.12,0.17,0.39,0.33
all,17000000.0,34.2,1.0,3.0,16.0,"Москва, ул. Таможенный проезд, 8к2 (3 км до центра)",55.751062,37.680418,Серп и Молот,4.0,9.7,евроремонт,железобетонные панели,,,не угловая,,8к2,Детская площадка,,нет,https://msk.etagi.com/realty/12428024/,raw,0.35,geo_recomputed,4.06,10.14,0.09,0.18,0.17,0.51
all,50000000.0,79.7,3.0,9.0,29.0,"Москва, ул. Волгоградский проспект, 32/5к4 (5 км до центра)",55.720023,37.688782,Угрешская,7.0,42.0,,монолитные,2023.0,2.8,не угловая,"пассажирский, грузовой",32/5к4,Двор,"подземный паркинг, гостевой паркинг",нет,https://msk.etagi.com/realty/12428044/,raw,0.59,geo_recomputed,5.81,9.19,1.07,0.09,0.41,0.37
all,70000000.0,120.79,3.0,6.0,10.0,"Набережная улица, район Кунцево, Рублёво, Москва, Центральный федеральный округ, 143405, Россия",55.788383,37.344608,Павшино,36.0,29.0,без отделки,монолитно-кирпичный,,,не угловая,,29,Детская площадка,,нет,https://msk.etagi.com/realty/12428200/,geo,2.99,geo_recomputed,17.42,1.64,0.55,0.7,0.69,2.25
all,17500000.0,38.0,2.0,3.0,12.0,"Москва, ул. Зеленоградская, 23к3",55.871536,37.495428,Ховрино,10.0,6.3,евроремонт,монолитные,1968.0,2.5,не угловая,"пассажирский, грузовой",23к3,Двор,"наземный паркинг, гостевой паркинг",нет,https://msk.etagi.com/realty/12428314/,raw,0.84,geo_recomputed,15.25,1.9,0.17,0.07,0.41,0.25
all,70000000.0,120.79,3.0,8.0,10.0,"Набережная улица, район Кунцево, Рублёво, Москва, Центральный федеральный округ, 143405, Россия",55.788383,37.344608,Павшино,36.0,29.0,без отделки,монолитно-кирпичный,,,не угловая,,29,Детская площадка,,нет,https://msk.etagi.com/realty/12428461/,geo,2.99,geo_recomputed,17.42,1.64,0.55,0.7,0.69,2.25
all,8300000.0,19.9,0.0,4.0,4.0,"Москва, ул. Большая Семёновская, 45 (6 км до центра)",55.781717,37.713468,Семеновская,5.0,4.0,,кирпичные,,,не угловая,,45,Двор,наземный паркинг,нет,https://msk.etagi.com/realty/12405274/,raw,0.39,geo_recomputed,6.95,8.05,0.52,0.62,0.2,0.14
all,13500000.0,38.3,2.0,9.0,12.0,"Москва, ул. Федеративный проспект, 26к4",55.754086,37.81036,Новогиреево,4.0,7.0,косметический ремонт,блочные,1970.0,2.64,не угловая,"пассажирский, грузовой",26к4,Двор,наземный паркинг,есть,https://msk.etagi.com/realty/12405515/,raw,0.34,geo_recomputed,12.19,2.0,0.26,0.35,0.26,0.3
all,54900000.0,121.0,4.0,31.0,34.0,"Москва, ул. Кочновский проезд, 4к2",55.80653,37.545995,Гражданская,6.0,12.0,,монолитный железобетонный каркас,,3.0,не угловая,,4к2,Парковка,подземный паркинг,нет,https://msk.etagi.com/realty/12405731/,raw,0.46,geo_recomputed,7.45,9.76,0.15,0.06,0.28,0.42
all,11900000.0,22.0,0.0,18.0,25.0,"1 к3, Квартал №100, район Кунцево, Москва, Центральный федеральный округ, 121500, Россия",55.803757,37.351105,Павшино,17.0,9.0,евроремонт,кирпичные,,2.7,не угловая,,1к3,Двор,подземный паркинг,нет,https://msk.etagi.com/realty/12405763/,geo,1.41,geo_recomputed,17.51,1.93,0.41,0.31,1.88,2.09
all,27522000.0,88.1,3.0,10.0,10.0,"Москва, ул. Тайнинская, 9к1",55.881631,37.6835,Медведково,19.0,15.0,без отделки,монолитно-кирпичный,2022.0,2.6,угловая,"пассажирский, грузовой",9к1,Двор,"наземный паркинг, гостевой паркинг",есть,https://msk.etagi.com/realty/12405785/,raw,1.55,geo_recomputed,15.0,1.46,0.37,0.3,0.37,0.47
all,33000000.0,80.0,3.0,10.0,17.0,"Москва, ул. Академика Анохина, 60 (21 км до центра)",55.649048,37.468793,Тропарево,5.0,10.0,косметический ремонт,панельные,2007.0,,не угловая,"пассажирский, грузовой",60,Двор,"наземный паркинг, гостевой паркинг",нет,https://msk.etagi.com/realty/12406157/,raw,0.42,geo_recomputed,14.7,1.09,0.39,0.37,0.58,0.13
all,26990000.0,51.0,2.0,4.0,56.0,"Москва, ул. проспект Генерала Дорохова, 49вл1 (10 км до центра)",55.709266,37.493463,Матвеевское,10.0,23.0,без отделки,монолитные,,3.0,не угловая,,49вл1,Детская площадка,,нет,https://msk.etagi.com/realty/12406237/,raw,0.87,geo_recomputed,9.02,5.45,0.52,0.5,0.64,0.54
all,27300000.0,46.0,1.0,7.0,18.0,"Москва, ул. Паршина, 10",55.790357,37.458076,Щукинская,26.0,19.5,евроремонт,монолитные,2020.0,,,,,,,,https://msk.etagi.com/realty/12408468/,raw,2.14,geo_recomputed,10.73,4.75,0.32,0.41,0.51,0.76
all,16000000.0,42.0,2.0,5.0,5.0,"Москва, ул. Народного Ополчения, 52к2",55.79553,37.500612,Панфиловская,5.0,6.0,косметический ремонт,кирпичные,1959.0,2.64,не угловая,,52к2,Двор,,нет,https://msk.etagi.com/realty/12408797/,raw,0.42,geo_recomputed,8.66,7.18,0.32,0.3,0.68,0.53
all,16790000.0,38.0,1.0,12.0,31.0,"Москва, ул. Газгольдерная, 8",55.727192,37.735746,Нижегородская,6.0,15.0,черновая отделка,монолитно-каркасные,,2.64,не угловая,"пассажирский, грузовой",8,Двор,подземный паркинг,нет,https://msk.etagi.com/realty/12408827/,raw,0.48,geo_recomputed,8.02,6.52,0.74,0.48,0.42,0.25
all,26000000.0,49.4,2.0,3.0,33.0,"Москва, ул. Перовское шоссе, 2к3 (8 км до центра)",55.734233,37.74233,Нижегородская,10.0,17.0,евроремонт,монолитные,2022.0,2.6,не угловая,,2к3,Двор,"гостевой паркинг, парковка во дворе",нет,https://msk.etagi.com/realty/12408924/,raw,0.81,geo_recomputed,8.18,6.16,0.23,0.11,0.46,0.36
all,30000000.0,48.5,2.0,5.0,9.0,"Москва, ул. Серпуховский Вал, 3к1",55.711072,37.618031,Тульская,4.0,6.0,,кирпич красный,,,не угловая,,3к1,Детская площадка,,нет,https://msk.etagi.com/realty/12403102/,raw,0.33,geo_recomputed,4.58,12.73,0.24,0.3,0.28,0.18
all,20150000.0,58.5,2.0,11.0,31.0,"Москва, ул. Тагильская, 6/5 (11 км до центра)",55.813597,37.753586,Бульвар Рокоссовского,13.0,21.0,требует ремонта / частичный ремонт,монолитно-кирпичный,2026.0,2.44,не угловая,,6/5,Двор,подземный паркинг,есть,https://msk.etagi.com/realty/12403122/,raw,1.12,geo_recomputed,11.0,4.47,0.65,0.29,0.76,0.35
all,154000000.0,116.0,3.0,4.0,9.0,"Москва, ул. Мосфильмовская, 1к9 (8 км до центра)",55.719054,37.524318,Минская,9.0,48.0,без отделки,монолитные,,3.35,угловая,"грузовой, пассажирский",1к9,Детская площадка,,нет,https://msk.etagi.com/realty/12403221/,raw,0.73,geo_recomputed,6.8,7.67,0.7,0.62,0.51,1.54
all,38000000.0,56.7,2.0,7.0,43.0,"Москва, ул. Шелепихинская набережная, 40к1 (7 км до центра)",55.767039,37.501707,Хорошево,14.0,12.0,,монолитно-кирпичный,2023.0,3.0,не угловая,,40к1,Двор,подземный паркинг,есть,https://msk.etagi.com/realty/12403228/,raw,1.18,geo_recomputed,7.31,8.29,0.38,0.72,0.8,0.68
all,20599000.0,47.2,1.0,22.0,30.0,"Москва, ул. бульвар Маршала Рокоссовского, 6к1 (9 км до центра)",55.809934,37.727885,Бульвар Рокоссовского,7.0,11.0,евроремонт,монолитные,2012.0,,не угловая,,6к1,Двор,"парковка во дворе, подземный паркинг, наземный паркинг",нет,https://msk.etagi.com/realty/12403446/,raw,0.62,geo_recomputed,9.51,5.86,0.13,0.26,0.98,0.16
all,13350000.0,62.2,2.0,,,"Москва, ул. Ярославское шоссе, 105",55.868223,37.706676,Бабушкинская,32.0,13.9,косметический ремонт,,,,не угловая,,105,Детская площадка,,нет,https://msk.etagi.com/realty/12403472/,raw,2.65,geo_recomputed,14.1,1.95,0.2,0.18,0.51,0.15
all,27700000.0,56.1,3.0,,,"Москва, ул. Ленинградское шоссе, 86",55.849029,37.47607,Речной вокзал,7.0,15.0,,,,,не угловая,,86,Детская площадка,,нет,https://msk.etagi.com/realty/12403526/,raw,0.57,geo_recomputed,13.86,3.83,0.46,0.19,0.35,0.04
all,35000000.0,109.0,5.0,15.0,16.0,"Москва, ул. Пятницкое шоссе, 6к4",55.838673,37.390415,Волоколамская,8.0,12.0,косметический ремонт,панельные,1997.0,2.7,не угловая,"пассажирский, грузовой",6к4,Двор,"наземный паркинг, гостевой паркинг",есть,https://msk.etagi.com/realty/12403568/,raw,0.63,geo_recomputed,17.05,0.31,0.34,0.07,0.76,0.21
all,17700000.0,32.4,0.0,,,"15 к1, Михалковская улица, район Коптево, Москва, Центральный федеральный округ, 125008, Россия",55.83839,37.525774,Коптево,5.0,5.0,,,,,не угловая,,к5к5,Детская площадка,,нет,https://msk.etagi.com/realty/12403602/,geo,0.38,geo_recomputed,11.11,6.04,0.08,0.22,0.2,0.35
